Service_Category,Service_Type,Location_Name,Description,Website,Service_Phone,Location_Address_1,Location_Suburb,Location_State,Location_Postcode,Latitude,Longitude
Accommodation Services,Crisis & Emergency Accommodation,Australian Red Cross - Milton,Australian Red Cross provides Crisis and Emergency,http://www.redcross.org.au,(07) 3367 7222,123 Example Street,MILTON,QLD,4064,-27.472,153.004
Accommodation Services,Crisis & Emergency Accommodation,BRIC Housing - Spring Hill,The Better Housing Projects provide housing accomm,http://www.bric.org.au/,(07) 3230 5555,124 Example Street,SPRING HILL,QLD,4000,-27.459,153.02
Accommodation Services,Crisis & Emergency Accommodation,Brisbane Housing Company (BHC),"A not-for-profit organisation, our vision is to cr",,(07) 3307 3000,125 Example Street,SPRING HILL,QLD,4000,-27.463,153.025
Accommodation Services,Crisis & Emergency Accommodation,Churches of Christ in Queensland Head Office,Care Housing is the Welfare Services Division of C,http://www.cofc.com.au/,(07) 3327 1600,126 Example Street,KENMORE,QLD,4069,-27.505,152.935
Accommodation Services,Crisis & Emergency Accommodation,DV Connect - Womensline,"Counselling, information, refuge and safety.",http://www.dvconnect.org,1800 811 811,127 Example Street,,,,-27.385,153.12
Accommodation Services,Crisis & Emergency Accommodation,Elorac Place,We have 2 SAAP houses where we accommodate young w,,(07) 3271 3592,128 Example Street,ELLEN GROVE,QLD,4078,-27.614,152.938
Accommodation Services,Crisis & Emergency Accommodation,Gateway Community Group Inc,Gateway works to respond to the housing needs of d,http://www.gatewaycg.org.au/,(07) 3890 8122,129 Example Street,MURARRIE,QLD,4172,-27.469,153.097
Accommodation Services,Crisis & Emergency Accommodation,HART4000 - Homelessness Assistance and Referral Team,HART4000We are an assessment and referral team tha,http://www.under1roof.org.au/contact-us/,(07) 3004 0100,130 Example Street,FORTITUDE VALLEY,QLD,4006,-27.454,153.034
Accommodation Services,Crisis & Emergency Accommodation,Homeless Hotline,Homeless Hotline is a phone information and referr,https://www.qld.gov.au/housing/emergency-temporary-accommodation/homeless-persons-information-qld/,1800 474 753,131 Example Street,,,,-27.47,153.023
Accommodation Services,Crisis & Emergency Accommodation,Inala Respite Centre,The Inala Day Respite Centre offers day care for f,http://www.inalarespitecentre.com.au/,(07) 3278 8432,132 Example Street,INALA,QLD,4077,-27.605,152.973
Accommodation Services,Crisis & Emergency Accommodation,Lifeline - Brisbane - Client Services,Lifeline Community Care Qld (LCC) provides support,http://www.uccommunity.org.au,(07) 3250 1900,133 Example Street,FORTITUDE VALLEY,QLD,4006,-27.457,153.031
Accommodation Services,Crisis & Emergency Accommodation,Nathanael House Crisis Youth Shelter,Nathanael House Crisis Youth Shelter provides cris,,(07) 3849 4038,134 Example Street,MT GRAVATT,QLD,4122,-27.531,153.083
Accommodation Services,Crisis & Emergency Accommodation,Ozcare Homeless Hostel (Men) - South Brisbane,Ozcare provides temporary accommodation and flexib,http://www.ozcare.org.au,1800 692 273,135 Example Street,SOUTH BRISBANE,QLD,4101,-27.473,153.014
Accommodation Services,Crisis & Emergency Accommodation,Queensland Disability Housing Coalition,QDHC provides information about housing options av,http://www.qdhc.org.au,(07) 3391 3433,136 Example Street,WOOLLOONGABBA,QLD,4102,-27.492,153.04
Accommodation Services,Crisis & Emergency Accommodation,Queensland Homicide Victims Support Group,The Queensland Homicide Victims Support Group offe,,(07) 3857 4744,137 Example Street,LUTWYCHE,QLD,4030,-27.422,153.033
Accommodation Services,Crisis & Emergency Accommodation,Queensland Youth Housing Coalition,The QYHC provides information to young people thro,http://www.qyhc.org.au,0439 739 747,138 Example Street,PADDINGTON,QLD,4064,-27.461,153.006
Accommodation Services,Crisis & Emergency Accommodation,Southside Community Care Inc,Southside Community Care offers short term crisis ,http://www.southsidecommunitycare.org.au,(07) 3343 1441,139 Example Street,UPPER MOUNT GRAVATT,QLD,4122,-27.547,153.081
Accommodation Services,Crisis & Emergency Accommodation,Teen Challenge Care Qld,Teen Challenge Qld provideds emergency accommodati,http://teenchallengeqld.org.au,(07) 3422 1500,140 Example Street,GAYTHORNE,QLD,4051,-27.412,152.981
Accommodation Services,Crisis & Emergency Accommodation,Womens House - Domestic Violence Support Services,Women's House services are run by women and for wo,http://womenshouse.org.au/womens-house-shelta/,(07) 3391 0005,141 Example Street,,,,-27.494,153.035
Accommodation Services,Crisis & Emergency Accommodation,Zillmere Family Accommodation Program,Zillmere Family Accommodation Program provides sho,,(07) 3865 2880,142 Example Street,ZILLMERE,QLD,4034,-27.357,153.038
Accommodation Services,Specialist Homelessness Services,#ChangingLivesProject,#ChangingLivesProject provide a free Clothes Washi,http://www.changinglivesproject.com.au,1300 970 145,143 Example Street,BOONDALL,QLD,4034,-27.362,153.051
Accommodation Services,Specialist Homelessness Services,139 Club - New Farm,This service is for individuals and families exper,http://www.139club.com.au,(07) 3254 1144,144 Example Street,NEW FARM,QLD,4005,-27.461,153.038
Accommodation Services,Specialist Homelessness Services,Aboriginal Hostels Ltd - Brisbane,Aboriginal Hostels Limited provides temporary acco,http://www.ahl.gov.au,(07) 3221 3866,145 Example Street,BRISBANE CITY,QLD,4000,-27.464,153.029
Accommodation Services,Specialist Homelessness Services,Australian Red Cross - Homestay program,The Homestay program is defined by the delivery of,http://www.redcross.org.au/homelessness.aspx,(07) 3863 0448,146 Example Street,,,,-27.472,153.004
Accommodation Services,Specialist Homelessness Services,BRIC Housing - Spring Hill,The Better Housing Projects provide housing accomm,http://www.bric.org.au/,(07) 3230 5555,147 Example Street,SPRING HILL,QLD,4000,-27.459,153.02
Accommodation Services,Specialist Homelessness Services,Brisbane Period Project - Brisbane,Supporting women and transgender men experiencing ,http://www.brisbaneperiodproject.org.au,0400 259 692,148 Example Street,,,,-27.44,153.156
Accommodation Services,Specialist Homelessness Services,Brisbane Youth Service - Centre for Young Families ,Housing assistance for young families,http://www.brisyouth.org/what-we-do/centre-for-young-families/,(07) 3620 2400,149 Example Street,GREENSLOPES,QLD,4120,-27.501,153.044
Accommodation Services,Specialist Homelessness Services,Brisbane Youth Service - Valley Hub,"Crisis and long term housing assistance.",http://www.brisyouth.org,(07) 3620 2400,150 Example Street,FORTITUDE VALLEY,QLD,4006,-27.458,153.036
Accommodation Services,Specialist Homelessness Services,DV Connect - Womensline, Counselling ' Information ' Refuge ' Safety,http://www.dvconnect.org,1800 811 811,151 Example Street,,,,-27.385,153.12
Accommodation Services,Specialist Homelessness Services,HART4000 - Homelessness Assistance and Referral Team,HART4000 - We are an assessment and referral team ,http://www.under1roof.org.au/contact-us/,(07) 3004 0100,152 Example Street,FORTITUDE VALLEY,QLD,4006,-27.454,153.034
Accommodation Services,Specialist Homelessness Services,Homeless Hotline,Homeless Hotline is a phone information and referr,https://www.qld.gov.au/housing/emergency-temporary-accommodation/homeless-persons-information-qld/,1800 474 753,153 Example Street,,,,-27.47,153.023
Accommodation Services,Specialist Homelessness Services,Lodge Youth Support Service Inc,Lodge Youth Support provides medium to long term a,,(07) 3266 2155,154 Example Street,NORTHGATE,QLD,4013,-27.389,153.064
Accommodation Services,Specialist Homelessness Services,Micah Projects Inc,"Please contact us if you are sleeping rough, homel",http://www.micahprojects.org.au,(07) 3029 7000,155 Example Street,WEST END,QLD,4101,-27.481,153.011
Accommodation Services,Specialist Homelessness Services,Nathanael House Crisis Youth Shelter,Nathanael House Crisis Youth Shelter provides cris,,(07) 3849 4038,156 Example Street,MT GRAVATT,QLD,4122,-27.531,153.083
Accommodation Services,Specialist Homelessness Services,New Hope Care,New Hope Care aims to meet the needs of those in B,http://admin5258.wixsite.com/newhopecare,(07) 3839 2312,157 Example Street,RED HILL,QLD,4059,-27.458,153.014
Accommodation Services,Specialist Homelessness Services,North West Youth Accommodation Service Inc.,Supported accommodation for young people aged 16-2,http://www.nwyas.org.au,(07) 3855 5233,158 Example Street,MITCHELTON,QLD,4053,-27.412,152.973
Accommodation Services,Specialist Homelessness Services,Ozcare Homeless Hostel (Men) - South Brisbane,Ozcare provides temporary accommodation and flexib,http://www.ozcare.org.au,1800 692 273,159 Example Street,SOUTH BRISBANE,QLD,4101,-27.473,153.014
Accommodation Services,Specialist Homelessness Services,"Pindari Services (Men's & Women's), The Salvation Army ",Pindari provides emergency accommodation up to thr,http://www.salvos.org.au,(07) 3832 1491,160 Example Street,SPRING HILL,QLD,4000,-27.458,153.028
Accommodation Services,Specialist Homelessness Services,Salvation Army - Brisbane North Supported Accommodation (families),Brisbane North Supported Accommodation Provides Im,,(07) 3350 3880,161 Example Street,,,,-27.378,153.029
Accommodation Services,Specialist Homelessness Services,Salvation Army - Fortitude Valley (Community Support Service),Food vouchers and parcels Transport vouchers (with,,(07) 3852 4438,162 Example Street,FORTITUDE VALLEY,QLD,4006,-27.454,153.032
Accommodation Services,Specialist Homelessness Services,Street Swags Head Office,Street Swags provides basic bedding to people all ,http://www.streetswags.org,(07) 3366 5126,163 Example Street,ASHGROVE,QLD,4060,-27.449,152.977
Accommodation Services,Specialist Homelessness Services,Windsor House - Immediate Response Program,"We do not accept families, accompanying children o",,(07) 3357 6504,164 Example Street,,,,-27.436,153.031
Accommodation Services,Specialist Homelessness Services,Youth Advocacy Centre,"YAC can provide information, advice, referral and ",http://yac.net.au,(07) 3356 1002,165 Example Street,PETRIE TERRACE,QLD,4000,-27.462,153.014
Accommodation Services,Specialist Homelessness Services,Zillmere Family Accommodation Program,Zillmere Family Accommodation Program provides sho,,(07) 3865 2880,166 Example Street,ZILLMERE,QLD,4034,-27.357,153.038
Accommodation Services,Youth Accommodation Services,Aftercare Youth Residential Rehabilitation Unit - Greenslopes,A 24-hour residential service which offers support,http://www.aftercare.com.au,(07) 3324 1922,167 Example Street,STONES CORNER,QLD,4120,-27.508,153.051
Accommodation Services,Youth Accommodation Services,Australian Red Cross - Milton,Australian Red Cross provides Youth Accommodation ,http://www.redcross.org.au,(07) 3367 7222,168 Example Street,MILTON,QLD,4064,-27.472,153.004
Accommodation Services,Youth Accommodation Services,BABI - Youth and Family Service,BABI Youth and Family Service provides a range of ,http://www.babi.org.au,(07) 3393 4176,169 Example Street,WYNNUM,QLD,4178,-27.441,153.172
Accommodation Services,Youth Accommodation Services,Global Booking Service,Homestay and Student accommodation for Internation,http://www.globalbookingservice.org,(07) 3062 4553,170 Example Street,,,,-27.469,153.025
Accommodation Services,Youth Accommodation Services,Lodge Youth Support Service Inc,Lodge Youth Support provides medium to long term a,,(07) 3266 2155,171 Example Street,NORTHGATE,QLD,4013,-27.389,153.064
Accommodation Services,Youth Accommodation Services,Nathanael House Crisis Youth Shelter,Nathanael House Crisis Youth Shelter provides cris,,(07) 3849 4038,172 Example Street,MT GRAVATT,QLD,4122,-27.531,153.083
Accommodation Services,Youth Accommodation Services,North West Youth Accommodation Service - Mitchelton,North West Youth Accommodation Service Inc. (NWYAS,http://www.nwyas.org.au,(07) 3855 5233,173 Example Street,MITCHELTON,QLD,4053,-27.412,152.973
Accommodation Services,Youth Accommodation Services,Queensland Baptist Care,The services provided by Queensland Bapist Care in,https://www.carinity.org.au/queensland-baptist-care-relaunches-carinity,(07) 3550 3737,174 Example Street,GAYTHORNE,QLD,4051,-27.412,152.981
Accommodation Services,Youth Accommodation Services,Salvation Army - Forest Lake (Youth Service),YOS offers six one bedroom transitional housing un,https://salvos.org.au/lakeyouthservice/,(07) 3714 0705,175 Example Street,FOREST LAKE,QLD,4078,-27.625,152.971
Accommodation Services,Youth Accommodation Services,Salvation Army - Fortitude Valley (Community Support Service),YOS offers six one bedroom transitional housing un,,(07) 3852 4438,176 Example Street,FORTITUDE VALLEY,QLD,4006,-27.454,153.032
Accommodation Services,Youth Accommodation Services,Salvation Army - Red Hill (Moonyah),YOS offers six one bedroom transitional housing un,,(07) 3369 0922,177 Example Street,RED HILL,QLD,4059,-27.448,153.001
Accommodation Services,Youth Accommodation Services,Salvation Army - Stafford,YOS offers six one bedroom transitional housing un,http://salvos.org.au/stafford/,(07) 3352 6577,178 Example Street,STAFFORD,QLD,4053,-27.415,153.011
Accommodation Services,Youth Accommodation Services,Salvation Army Aged Care Plus - Chapel Hill ,YOS offers six one bedroom transitional housing un,http://agedcareplus.salvos.org.au/,(07) 3379 9800,179 Example Street,CHAPEL HILL,QLD,4069,-27.508,152.956
Accommodation Services,Youth Accommodation Services,Teen Challenge - New Hope House,New Hope House is the emergency accommodation cent,http://www.teenchallengeqld.org.au,(07) 3356 6824,180 Example Street,KELVIN GROVE,QLD,4059,-27.458,153.014
Accommodation Services,Youth Accommodation Services,Teen Challenge QLD Care - Brisbane,Teen Challenge Care Qld Ltd offers the following s,https://www.teenchallengeqld.org.au/,(07) 3422 1500,181 Example Street,GAYTHORNE,QLD,4051,-27.412,152.981
Accommodation Services,Youth Accommodation Services,The Salvation Army Employment Plus - Cannon Hill,YOS offers six one bedroom transitional housing un,http://www.employmentplus.com.au/,(07) 3368 8100,182 Example Street,CANNON HILL,QLD,4170,-27.471,153.1
Accommodation Services,Youth Accommodation Services,The Salvation Army Employment Plus - Greenslopes,YOS offers six one bedroom transitional housing un,http://www.employmentplus.com.au/,(07) 3394 9500,183 Example Street,GREENSLOPES,QLD,4120,-27.498,153.046
Accommodation Services,Youth Accommodation Services,The Salvation Army Employment Plus - Inala,YOS offers six one bedroom transitional housing un,http://www.employmentplus.com.au/,(07) 3714 2100,184 Example Street,INALA,QLD,4077,-27.597,152.974
Accommodation Services,Youth Accommodation Services,The Salvation Army Employment Plus - Moorooka,YOS offers six one bedroom transitional housing un,http://www.employmentplus.com.au/,(07) 3373 0800,185 Example Street,MOOROOKA,QLD,4105,-27.532,153.025
Accommodation Services,Youth Accommodation Services,YHP,YHP provides externally supported accommodation fo,http://yhp.org.au,(07) 3256 0241,186 Example Street,ALBION,QLD,4010,-27.431,153.041
Accommodation Services,Youth Accommodation Services,Youth Emergency Service - Inala,The Inala Youth and Family Support Service is a co,http://www.iys.org.au,(07) 3372 4435,187 Example Street,INALA,QLD,4077,-27.598,152.978
Accommodation Services,Youth Accommodation Services,Youth Emergency Services - Windsor,Youth Emergency Service Inc at Windsor accommodate,,(07) 3357 7655,188 Example Street,LUTWYCHE,QLD,4030,-27.422,153.033
Accommodation Services,Youth Accommodation Services,Zig Zag Young Womens Resource Centre,Zig Zag Young Womens Resource Centre operates a me,http://www.zigzag.org.au,(07) 3843 1823,189 Example Street,CAMP HILL,QLD,4152,-27.493,153.075
Advocacy Services,General Advocacy Services,Acacia Ridge Community Support Inc,Community Support Inc (CSI) - Acacia Ridge provide,http://www.arcsi.org.au/,(07) 3277 4893,190 Example Street,ACACIA RIDGE,QLD,4110,-27.579,153.019
Advocacy Services,General Advocacy Services,ADA Australia - Statewide,"QADA offers information, education and support to ",http://www.adaaustralia.com.au,1800 818 338,191 Example Street,GEEBUNG,QLD,4034,-27.37,153.038
Advocacy Services,General Advocacy Services,Amparo Advocacy Inc.,Addressing the needs of people from culturally and,,(07) 3369 2500,192 Example Street,MILTON,QLD,4064,-27.466,153.009
Advocacy Services,General Advocacy Services,Australian Pensioners' & Superannuants' League - Inala,Australian Pensioners and Superannuants League (AP,,(07) 3372 6302,193 Example Street,INALA,QLD,4077,-27.601,152.974
Advocacy Services,General Advocacy Services,Australian Pensioners and Superannuants League - Head Office,Australian Pensioners and Superannuants League (AP,http://www.apsl.com.au,(07) 3844 5878,194 Example Street,WEST END,QLD,4101,-27.482,153.012
Advocacy Services,General Advocacy Services,Births Death and Marriages,"Records of births, deaths and marriages. We have t",https://www.qld.gov.au/law/births-deaths-marriages-and-divorces/,13 74 68,195 Example Street,BRISBANE CITY,QLD,4000,-27.466,153.024
Advocacy Services,General Advocacy Services,Care Connect - Banyo,Care Connect is a major community care provider th,http://careconnect.org.au,(07) 3867 2200,196 Example Street,BANYO,QLD,4014,-27.384,153.077
Advocacy Services,General Advocacy Services,Carers Advisory Service,The Carer Advisory Service is a statewide service ,http://www.carersqld.asn.au,1800 242 636,197 Example Street,CAMP HILL,QLD,4152,-27.499,153.081
Advocacy Services,General Advocacy Services,Carers Queensland,Advocacy is available to support you in your role ,http://www.carersqld.asn.au,(07) 3900 8100,198 Example Street,CAMP HILL,QLD,4152,-27.498,153.081
Advocacy Services,General Advocacy Services,Carers Queensland: Brisbane North Regional Office ,Advocacy is available to support you in your role ,http://carersqld.asn.au/,(07) 3624 1700,199 Example Street,STAFFORD,QLD,4053,-27.411,153.02
Advocacy Services,General Advocacy Services,Carers Queensland: Brisbane South Regional Office,Advocacy is available to support you in your role ,http://www.carersqld.asn.au,(07) 3723 5010,200 Example Street,MT GRAVATT EAST,QLD,4122,-27.537,153.078
Advocacy Services,General Advocacy Services,Caxton Legal Centre Inc,Caxton Legal Centre provides free legal and social,http://www.caxton.org.au,(07) 3214 6333,201 Example Street,SOUTH BRISBANE,QLD,4101,-27.474,153.013
Advocacy Services,General Advocacy Services,Centacare - Enoggera Day Respite Centre,"Centre Based Day Care, Domestic Assistance, Allied",http://www.centacarebrisbane.net.au/,1300 236 822,202 Example Street,ENOGGERA,QLD,4051,-27.415,152.99
Advocacy Services,General Advocacy Services,Centacare - Northgate Community Services,"Centre Based Day Care, Domestic Assistance, Case M",http://www.centacarebrisbane.net.au,1300 236 822,203 Example Street,NORTHGATE,QLD,4013,-27.397,153.073
Advocacy Services,General Advocacy Services,Contact Inc,Contact Inc is a Community Cultural Development or,,(07) 3255 3900,204 Example Street,SOUTH BRISBANE,QLD,4101,-27.474,153.017
Advocacy Services,General Advocacy Services,COTA Queensland,COTA,http://www.cotaq.org.au,(07) 3316 2999,205 Example Street,BRISBANE,QLD,4000,-27.471,153.023
Advocacy Services,General Advocacy Services,Crime And Misconduct Commission - Brisbane,We provide services in the Toowoomba Regional Coun,http://www.ccc.qld.gov.au/,(07) 3360 6060,206 Example Street,BRISBANE,QLD,4000,-27.466,153.027
Advocacy Services,General Advocacy Services,Darra Community Group Inc,General community support.,http://darracommunitygroup.org/,(07) 3271 2416,207 Example Street,DARRA,QLD,4076,-27.566,152.952
Advocacy Services,General Advocacy Services,EDARC,Providing advocacy for individuals with eating dis,http://www.eda.org.au,(07) 3394 3661,208 Example Street,GREENSLOPES,QLD,4120,-27.507,153.051
Advocacy Services,General Advocacy Services,Elorac Place,"Tenents are seleected based on age, they must be u",,(07) 3271 3592,209 Example Street,ELLEN GROVE,QLD,4078,-27.614,152.938
Advocacy Services,General Advocacy Services,Huntingtons Queensland,Our mission is to provide professional support and,http://huntingtonsqld.org.au/,(07) 3391 8833,210 Example Street,ANNERLEY,QLD,4103,-27.508,153.033
Advocacy Services,General Advocacy Services,LawRight - South Brisbane,We assist people to navigate the mental health sys,http://www.lawright.org.au/,(07) 3846 6317,211 Example Street,SOUTH BRISBANE,QLD,4101,-27.467,153.02
Advocacy Services,General Advocacy Services,MDA - Headquarters,MDA develops relationships with community stakehol,http://www.mdaltd.org.au/,(07) 3337 5400,212 Example Street,WOOLLOONGABBA,QLD,4102,-27.494,153.033
Advocacy Services,General Advocacy Services,MDA Northside Office,MDA develops relationships with community stakehol,http://www.mdaltd.org.au,(07) 3198 2500,213 Example Street,NUNDAH,QLD,4012,-27.399,153.063
Advocacy Services,General Advocacy Services,Mental Health Court registry,The Mental Health Court decides the state of mind ,http://www.courts.qld.gov.au/contact-us/mental-health-court,(07) 3234 0703,214 Example Street,BRISBANE CITY,QLD,4000,-27.47,153.028
Advocacy Services,General Advocacy Services,Micah Projects Inc,The Brisbane Domestic Violence Service (BDVS) is a,http://www.micahprojects.org.au,(07) 3029 7000,215 Example Street,WEST END,QLD,4101,-27.481,153.011
Advocacy Services,General Advocacy Services,Motor Neurone Association of Queensland,Advocacy for people living with MND and their care,http://www.mndaq.org.au,(07) 3372 9004,216 Example Street,INALA,QLD,4077,-27.601,152.984
Advocacy Services,General Advocacy Services,Office of the Health Ombudsman,We maintain public confidence in the management of,http://www.oho.qld.gov.au/,13 36 46,217 Example Street,BRISBANE CITY,QLD,4000,-27.469,153.025
Advocacy Services,General Advocacy Services,Office of the Public Guardian,Involuntary guardianship agency for persons identi,http://www.publicguardian.qld.gov.au,(07) 3234 0870,218 Example Street,BRISBANE CITY,QLD,4000,-27.467,153.021
Advocacy Services,General Advocacy Services,QCU,The Queensland Council of Unions (QCU) is the peak,http://www.queenslandunions.org/,(07) 3846 2468,219 Example Street,SOUTH BRISBANE,QLD,4101,-27.472,153.016
Advocacy Services,General Advocacy Services,QE11 Courts of Law Complex,The Mental Health Court decides the state of mind ,http://www.courts.qld.gov.au/contact-us/mental-health-court,(07) 3234 0703,220 Example Street,BRISBANE,QLD,4000,-27.467,153.02
Advocacy Services,General Advocacy Services,Qld AIDS Council Building,Patient Advocacy and Support Service for people af,http://www.hfq.org.au,0419 706 056,221 Example Street,NEWSTEAD,QLD,4006,-27.452,153.046
Advocacy Services,General Advocacy Services,Queensland Advocacy Inc,Community-based systems and legal advocacy for peo,http://www.qai.org.au,(07) 3844 4200,222 Example Street,SOUTH BRISBANE,QLD,4101,-27.473,153.014
Advocacy Services,General Advocacy Services,Queensland Alliance for Mental Health (QAMH),The Queensland Alliance advocates for community se,http://www.qldalliance.org.au,(07) 3252 9411,223 Example Street,STONES CORNER,QLD,4120,-27.504,153.047
Advocacy Services,General Advocacy Services,Queensland Parents of People with a Disability,Vigorously defend justice and rights for people wi,http://www.qppd.org/,0447 010 260,224 Example Street,BANYO,QLD,4014,-27.38,153.092
Advocacy Services,General Advocacy Services,Queensland Shelter,Queensland Shelter is a housing policy peak which ,http://www.qshelter.asn.au,(07) 3831 5900,225 Example Street,BRISBANE,QLD,4004,-27.461,153.018
Advocacy Services,General Advocacy Services,Queensland Voice for Mental Health Inc.,Qld Voice is the peak body for consumers and carer,http://www.qldvoice.org.au,(07) 3252 3999,226 Example Street,BOWEN HILLS,QLD,4006,-27.448,153.034
Advocacy Services,General Advocacy Services,Respect Inc - Brisbane,Respect Inc  aims to provide all sex workers with ,http://www.respectqld.org.au,(07) 3835 1111,227 Example Street,SPRING HILL  BRISBANE,QLD,4000,-27.462,153.028
Advocacy Services,General Advocacy Services,SISTERS INSIDE - West End,Sisters Inside Inc. is an independent community or,http://www.sistersinside.com.au,(07) 3844 5066,228 Example Street,WEST END,QLD,4101,-27.482,153.004
Advocacy Services,General Advocacy Services,Spinal Home Help Inc.,SHH will assist you to locate any service provider,http://www.spinalhomehelp.com.au,(07) 3189 3414,229 Example Street,MOOROOKA,QLD,4105,-27.535,153.02
Advocacy Services,General Advocacy Services,Spinal Life Australia - Woolloongabba,The Spinal Injuries Australia is a Queensland wide,http://www.spinal.com.au,(07) 3391 2044,230 Example Street,WOOLLOONGABBA,QLD,4102,-27.49,153.039
Advocacy Services,General Advocacy Services,St. Catherine's Anglican Ministry Middle Park,Supporting community members to give them a voice ,http://homepage.powerup.com.au/~stcaths,(07) 3376 0384,231 Example Street,MIDDLE PARK,QLD,4074,-27.558,152.917
Advocacy Services,General Advocacy Services,The Ethnic Communities Council of Queensland - ECCQ,The Ethnic Communities Council of Queensland is th,http://www.eccq.com.au,(07) 3844 9166,232 Example Street,WEST END,QLD,4101,-27.483,153.011
Advocacy Services,General Advocacy Services,Urban Design Alliance Queensland Inc,Urban Design Alliance Queensland Inc,http://www.udal.org.au,0402 729 763,233 Example Street,BRISBANE,QLD,4000,-27.47,153.028
Advocacy Services,General Advocacy Services,Women's Legal Service Advice Line,Women's Legal Service phone line dedicated to wome,http://www.wlsq.org.au/,1800 457 117,234 Example Street,ANNERLEY,QLD,4103,-27.508,153.033
Advocacy Services,Local Advocacy Services,Acacia Ridge Community Support Inc,Community Support Inc (CSI) - Acacia Ridge provide,http://www.arcsi.org.au/,(07) 3277 4893,235 Example Street,ACACIA RIDGE,QLD,4110,-27.579,153.019
Advocacy Services,Local Advocacy Services,Births Death and Marriages,"Records of births, deaths and marriages. We have t",https://www.qld.gov.au/law/births-deaths-marriages-and-divorces/,13 74 68,236 Example Street,BRISBANE CITY,QLD,4000,-27.466,153.024
Advocacy Services,Local Advocacy Services,Brisbane Central District Child Protection & Investigation Unit,The Brisbane Central District Child Protection & I,,(07) 3258 2533,237 Example Street,BRISBANE CITY,QLD,4000,-27.471,153.025
Advocacy Services,Local Advocacy Services,Brisbane West District Child Protection and Investigation Unit,The Brisbane Central District Child Protection & I,,(07) 3872 1577,238 Example Street,FERNY GROVE,QLD,4055,-27.406,152.94
Advocacy Services,Local Advocacy Services,Calamvale Ward Office - Councillor Angela Owen,"Having lived in the ward for 30 years, I have been",http://www.angelaowen.com.au/Default.aspx,(07) 3131 7022,239 Example Street,ALGESTER,QLD,4115,-27.611,153.041
Advocacy Services,Local Advocacy Services,Care Connect - Banyo,Care Connect is a major community care provider th,http://careconnect.org.au,(07) 3867 2200,240 Example Street,BANYO,QLD,4014,-27.384,153.077
Advocacy Services,Local Advocacy Services,Centacare - Aspley Respite Centre,"Centre Based Day Care, Domestic Assistance, Allied",http://centacarebrisbane.net.au/,1300 236 822,241 Example Street,ASPLEY,QLD,4034,-27.366,153.034
Advocacy Services,Local Advocacy Services,Child Protection & Investigation Unit - Oxley District,The Oxley District Child Protection and Investigat,,(07) 3737 5558,242 Example Street,INALA,QLD,4077,-27.595,152.971
Advocacy Services,Local Advocacy Services,Court Network Queensland,"To provide support, information and referral to pe",http://www.courtnetwork.com.au,1800 267 671,243 Example Street,BRISBANE CITY,QLD,4000,-27.467,153.02
Advocacy Services,Local Advocacy Services,Holland Park Mt Gravatt Sub Branch - The Returned Services League of Australia,Welfare and Pension Advocacy within the Veteran Co,,(07) 3397 0561,244 Example Street,HOLLAND PARK,QLD,4121,-27.516,153.064
Advocacy Services,Local Advocacy Services,Holland Park Ward Office - Councillor Krista Adams,"As your local representative, it's my job to ensur",http://www.kristaadams.com.au/home,(07) 3403 7791,245 Example Street,MOUNT GRAVATT,QLD,4122,-27.531,153.074
Advocacy Services,Local Advocacy Services,Joe Kelly MP - Greenslopes,Joe Kelly knows that access to high quality health,http://www.queenslandlabor.org/candidate/joe-kelly/,(07) 3414 2100,246 Example Street,COORPAROO,QLD,4151,-27.493,153.06
Advocacy Services,Local Advocacy Services,MATES in Construction,MATES in Construction is a charity established in ,http://www.matesinconstruction.org.au,(07) 3833 1140,247 Example Street,SPRING HILL,QLD,4000,-27.463,153.025
Advocacy Services,Local Advocacy Services,Morningside Child Protection and Investigation Unit,The Brisbane Central District Child Protection & I,,(07) 3823 8672,248 Example Street,MORNINGSIDE,QLD,4170,-27.465,153.071
Advocacy Services,Local Advocacy Services,Office of Public Guardian Queensland - Advocacy for children and young people,OPG child advocacy officers protect the rights of ,http://publicguardian.qld.gov.au/,1800 661 533,249 Example Street,BRISBANE,QLD,4000,-27.467,153.021
Advocacy Services,Local Advocacy Services,Office of the Public Guardian,Involuntary guardianship agency for persons identi,http://www.publicguardian.qld.gov.au,(07) 3234 0870,250 Example Street,BRISBANE CITY,QLD,4000,-27.467,153.021
Advocacy Services,Local Advocacy Services,QCU,QCU Branches are a fantastic resource for the QCU ,http://www.queenslandunions.org/,(07) 3846 2468,251 Example Street,SOUTH BRISBANE,QLD,4101,-27.472,153.016
Advocacy Services,Local Advocacy Services,Queensland Advocacy Inc,Queensland Advocacy Incorporated (QAI) is an indep,http://www.qai.org.au,(07) 3844 4200,252 Example Street,SOUTH BRISBANE,QLD,4101,-27.473,153.014
Advocacy Services,Local Advocacy Services,Queensland Positive People,This service aims to improve the legal literacy of,http://www.qpp.org.au,(07) 3013 5555,253 Example Street,EAST BRISBANE,QLD,4169,-27.481,153.042
Advocacy Services,Local Advocacy Services,Respect Inc - Brisbane,Respect Inc - Brisbane,http://www.respectqld.org.au,(07) 3835 1111,254 Example Street,SPRING HILL  BRISBANE,QLD,4000,-27.462,153.028
Advocacy Services,Local Advocacy Services,Tenants Queensland Inc,Tenants Queensland offers a free community based a,http://tenantsqld.org.au/,1300 744 263,255 Example Street,,,,-27.461,153.024
Advocacy Services,Local Advocacy Services,The North Brisbane  Child Protection & Investigation Unit Boondall,The Brisbane Central District Child Protection & I,,(07) 3364 3391,256 Example Street,BOONDALL,QLD,4034,-27.349,153.053
Advocacy Services,Local Advocacy Services,Women's Legal Service Advice Line,Women's Legal Service phone line dedicated to wome,http://www.wlsq.org.au/,1800 457 117,257 Example Street,ANNERLEY,QLD,4103,-27.508,153.033
Advocacy Services,National & International Advocacy Services,Amnesty International Australia - Brisbane,Amnesty International is a worldwide movement of p,http://www.amnesty.org.au,(07) 3136 6400,258 Example Street,FORTITUDE VALLEY,QLD,4006,-27.458,153.035
Advocacy Services,National & International Advocacy Services,RS&L South East Districs,ASAC Australia - providing FREE assistance in rela,http://www.asacaustralia.com,(07) 3358 6522,259 Example Street,NEW FARM,QLD,4005,-27.473,153.05
Child Services,Child Protection Services,Advocates For Survivors Of Child Abuse,We provide services in the Toowoomba Regional Coun,http://www.blueknot.org.au/,(07) 3824 6670,260 Example Street,BRISBANE,QLD,4000,-27.471,153.023
Child Services,Child Protection Services,Alderley Child Safety Service Centre,Child safety service centres provide support and a,,(07) 3247 7888,261 Example Street,ALDERLEY,QLD,4051,-27.425,153.001
Child Services,Child Protection Services,Brisbane Central District Child Protection & Investigation Unit,The Brisbane Central District Child Protection & I,,(07) 3258 2533,262 Example Street,BRISBANE CITY,QLD,4000,-27.471,153.025
Child Services,Child Protection Services,Brisbane Region Child Safety,Child safety service centres provide support and a,https://www.communities.qld.gov.au,(07) 3895 3044,263 Example Street,SOUTH BRISBANE,QLD,4101,-27.478,153.014
Child Services,Child Protection Services,Brisbane West District Child Protection and Investigation Unit,The Brisbane Central District Child Protection & I,,(07) 3872 1577,264 Example Street,FERNY GROVE,QLD,4055,-27.406,152.94
Child Services,Child Protection Services,Carinity Communities - Talera,"Our counselling service at Greenslopes, Brisbane, ",http://www.carinity.org.au,(07) 3397 7287,265 Example Street,,,,-27.514,153.053
Child Services,Child Protection Services,Chermside Child Safety Service Centre,Child safety service centres provide support and a,,(07) 3513 3700,266 Example Street,CHERMSIDE,QLD,4032,-27.381,153.03
Child Services,Child Protection Services,Child Aware,The Child Aware Counselling Service consists of Ps,http://www.childaware.com.au,1300 914 318,267 Example Street,CARINA,QLD,4152,-27.491,153.04
Child Services,Child Protection Services,Child Protection & Investigation Unit - Oxley District,The Brisbane Central District Child Protection & I,,(07) 3737 5558,268 Example Street,INALA,QLD,4077,-27.595,152.971
Child Services,Child Protection Services,Child Safety Services Enquiries Unit,Child safety service centres provide support and a,http://www.communities.qld.gov.au/childsafety/,(07) 3224 8045,269 Example Street,BRISBANE,QLD,4000,-27.472,153.025
Child Services,Child Protection Services,Clinical Services Team - Brisbane,Our department aims to enable vulnerable Queenslan,https://www.communities.qld.gov.au,(07) 3406 9000,270 Example Street,BRISBANE,QLD,4000,-27.472,153.025
Child Services,Child Protection Services,Department of Child Safety,provides a range of services to current clients of,https://www.communities.qld.gov.au/childsafety/about-us/contact-us,1800 811 810,271 Example Street,BRISBANE,QLD,4000,-27.472,153.025
Child Services,Child Protection Services,Forest Lake Child Safety Service Centre,Child safety service centres provide support and a,,(07) 3723 6100,272 Example Street,FOREST LAKE,QLD,4078,-27.626,152.969
Child Services,Child Protection Services,Fortitude Valley Child Safety Service Centre,Child safety service centres provide support and a,,(07) 3406 5222,273 Example Street,FORTITUDE VALLEY,QLD,4006,-27.453,153.034
Child Services,Child Protection Services,FOSTER CARE QUEENSLAND INC,"Foster Care Queensland provides support, advocacy ",http://www.fcq.com.au,(07) 3256 6166,274 Example Street,BANYO,QLD,4014,-27.383,153.077
Child Services,Child Protection Services,Inala Child Safety Service Centre,Child safety service centres provide support and a,,(07) 3710 1800,275 Example Street,INALA,QLD,4077,-27.601,152.974
Child Services,Child Protection Services,Kids National Helpline,Kids Helpline is a free 24 hour counselling servic,https://kidshelpline.com.au/kids/,1800 551 800,276 Example Street,,,,-27.469,153.025
Child Services,Child Protection Services,Kyabra Community Association Inc,Foster and Kinship Care and Residential care for y,http://www.kyabra.org,(07) 3373 9499,277 Example Street,RUNCORN,QLD,4113,-27.609,153.069
Child Services,Child Protection Services,Morningside Child Protection and Investigation Unit,The Brisbane Central District Child Protection & I,,(07) 3823 8672,278 Example Street,MORNINGSIDE,QLD,4170,-27.465,153.071
Child Services,Child Protection Services,Mount Gravatt Child Safety Service Centre,Child safety service centres provide support and a,,(07) 3434 1200,279 Example Street,UPPER MT GRAVATT,QLD,4122,-27.561,153.079
Child Services,Child Protection Services,Peakcare Queensland Inc,Policy and sector developmrnt,http://www.peakcare.org.au,(07) 3368 1050,280 Example Street,PADDINGTON,QLD,4064,-27.462,153.002
Child Services,Child Protection Services,Safe Places Community Services Limited - Woolloongabba,Safe Places is a specialist residential program th,,1300 993 483,281 Example Street,WOOLLOONGABBA,QLD,4102,-27.493,153.046
Child Services,Child Protection Services,Stones Corner Child Safety Service Centre,Child safety service centres provide support and a,,(07) 3324 5400,282 Example Street,STONES CORNER,QLD,4120,-27.497,153.043
Child Services,Child Protection Services,The Kurbingui Youth Development Limited (KYDAII),Welcome to Kurbingui The Kurbingui Youth Developme,http://www.kurbingui.org.au/,(07) 3865 1462,283 Example Street,ZILLMERE,QLD,4034,-27.359,153.037
Child Services,Child Protection Services,The North Brisbane  Child Protection & Investigation Unit Boondall,The Brisbane Central District Child Protection & I,,(07) 3364 3391,284 Example Street,BOONDALL,QLD,4034,-27.349,153.053
Child Services,Child Protection Services,The Pyjama Foundation - Banyo,The Pyjama Foundation is the quintessential Austra,http://www.thepyjamafoundation.com,(07) 3256 8802,285 Example Street,,QLD,4014,-27.374,153.091
Crisis & Emergency Services,Abuse & Assault Services,Allanah and Madeline Foundation,Every day Australian children witness or experienc,http://www.amf.org.au/,1300 720 747,286 Example Street,BRISBANE,QLD,4000,-27.467,153.027
Crisis & Emergency Services,Abuse & Assault Services,Centacare - Family and Relationship Services,"Children's Programs, Community Service Programs, F",http://www.centacarebrisbane.net.au,1300 236 822,287 Example Street,FORTITUDE VALLEY,QLD,4006,-27.457,153.038
Crisis & Emergency Services,Abuse & Assault Services,Child Safety Suspected Abuse,Child Safety Suspected Abuse,https://www.communities.qld.gov.au/childsafety/about-us/contact-us,1800 811 810,288 Example Street,BRISBANE,QLD,4000,-27.472,153.025
Crisis & Emergency Services,Abuse & Assault Services,DV Connect - Sexual Assault Helpline,We are here to offer telephone support and counsel,http://www.dvconnect.org,1800 010 120,289 Example Street,,,,-27.471,153.023
Crisis & Emergency Services,Abuse & Assault Services,DV Connect - Womensline,"Counselling, information, refuge and safety.",http://www.dvconnect.org,1800 811 811,290 Example Street,,,,-27.385,153.12
Crisis & Emergency Services,Abuse & Assault Services,Neighbourhood Watch - Brisbane,The national mission statement for Neighbourhood W,http://brisbane.nhwq.org/,(07) 3234 2111,291 Example Street,BRISBANE,QLD,4000,-27.468,153.018
Crisis & Emergency Services,Abuse & Assault Services,Sexual Assault Help Line,The Sexual Assault Help Line is a statewide teleph,,1800 010 120  24Hrs,292 Example Street,HERSTON,QLD,4006,-27.447,153.027
Crisis & Emergency Services,Abuse & Assault Services,The Kurbingui Youth Development Limited (KYDAII),Welcome to Kurbingui The Kurbingui Youth Developme,http://www.kurbingui.org.au/,(07) 3865 1462,293 Example Street,ZILLMERE,QLD,4034,-27.359,153.037
Crisis & Emergency Services,Crisis & Emergency Accommodation,"Pindari Services (Men's & Women's), The Salvation Army ","Immediate supported accommodation for adults.",http://www.salvos.org.au,(07) 3832 1491,294 Example Street,SPRING HILL,QLD,4000,-27.458,153.028
Crisis & Emergency Services,Crisis Counselling & Intervention Services,Australian Red Cross - Homestay program,The Homestay program is defined by the delivery of,http://www.redcross.org.au/homelessness.aspx,(07) 3863 0448,295 Example Street,,,,-27.472,153.004
Crisis & Emergency Services,Crisis Counselling & Intervention Services,Bayside Transformations,Residential recovery service-faith based takes men,,(07) 4194 6621,296 Example Street,BRISBANE,QLD,4000,-27.467,153.141
Crisis & Emergency Services,Crisis Counselling & Intervention Services,Career Keys,Our Participate in Prosperity program specialises ,http://careerkeys.com.au/home,(07) 3200 2700,297 Example Street,INALA,QLD,4077,-27.601,152.973
Crisis & Emergency Services,Crisis Counselling & Intervention Services,Centacare - Family and Relationship Services,"Children's Programs, Community Service Programs, F",http://www.centacarebrisbane.net.au,1300 236 822,298 Example Street,FORTITUDE VALLEY,QLD,4006,-27.457,153.038
Crisis & Emergency Services,Crisis Counselling & Intervention Services,Communities Respond - Mt Crosby,"Crisis Response, Counselling and C.I.S.M. plus tra",http://www.communitiesrespond.com.au,0414 928 641,299 Example Street,MT CROSBY,QLD,,-27.539,152.804
Crisis & Emergency Services,Crisis Counselling & Intervention Services,DV Connect - Mensline,DV Connect Men's Line provides telephone counselli,http://www.dvconnect.org,1800 600 636,300 Example Street,,,,-27.466,153.023
Crisis & Emergency Services,Crisis Counselling & Intervention Services,DV Connect - Womensline, Counselling ' Information ' Refuge ' Safety,http://www.dvconnect.org,1800 811 811,301 Example Street,,,,-27.385,153.12
Crisis & Emergency Services,Crisis Counselling & Intervention Services,Gambling Help - National Phone Service,Sometimes thinking about a gambling issue is hard.,http://www.gamblinghelponline.org.au,1800 858 858,302 Example Street,,,,-27.469,153.025
Crisis & Emergency Services,Crisis Counselling & Intervention Services,Kids National Helpline,Kids Helpline is a free 24 hour counselling servic,https://kidshelpline.com.au/kids/,1800 551 800,303 Example Street,,,,-27.469,153.025
Crisis & Emergency Services,Crisis Counselling & Intervention Services,Lifeline - National phone service,Lifeline connects people with care by providing cr,https://www.lifeline.org.au/get-help/get-help-home,13 11 14,304 Example Street,,,,-27.469,153.025
Crisis & Emergency Services,Crisis Counselling & Intervention Services,MATES in Construction,MATES in Construction is a charity established in ,http://www.matesinconstruction.org.au,(07) 3833 1140,305 Example Street,SPRING HILL,QLD,4000,-27.463,153.025
Crisis & Emergency Services,Crisis Counselling & Intervention Services,Pure Counselling,"Grief and Loss, Self harm, Anxiety. Personal Couns",http://www.purecounselling.com.au,0426 422 553,306 Example Street,FERNY GROVE,QLD,4055,-27.405,152.931
Crisis & Emergency Services,Crisis Counselling & Intervention Services,Queensland Homicide Victims Support Group,We provide services in the Toowoomba Regional Coun,,1800 774 744,307 Example Street,LUTWYCHE,QLD,4030,-27.422,153.033
Crisis & Emergency Services,Crisis Counselling & Intervention Services,Queensland Injectors Health Network - Bowen Hills (Mudmaps),Get back on track for the week with this Monday mo,http://www.quihn.org,(07) 3620 8111,308 Example Street,BOWEN HILLS,QLD,4006,-27.448,153.035
Crisis & Emergency Services,Crisis Counselling & Intervention Services,Queensland Injectors Health Network - Bowen Hills (Significant Other Support (SOS) Workshop),"This is a six hour workshop, normally held on Satu",http://www.quihn.org,(07) 3620 8111,309 Example Street,BOWEN HILLS,QLD,4006,-27.448,153.035
Crisis & Emergency Services,Crisis Counselling & Intervention Services,Suicidology Australia,Suicide counselling. Suicidology workshops.,http://www.suicidology.com.au,0426 422 553,310 Example Street,FERNY GROVE,QLD,4055,-27.405,152.93
Crisis & Emergency Services,Crisis Counselling & Intervention Services,UnitingCare Community - Brisbane,UnitingCare Community - Brisbane,http://www.uccommunity.org.au/,(07) 3253 4000,311 Example Street,BRISBANE,QLD,4000,-27.466,153.024
Crisis & Emergency Services,General Crisis and Emergency Services,139 Club - New Farm,This service is for individuals and families exper,http://www.139club.com.au,(07) 3254 1144,312 Example Street,NEW FARM,QLD,4005,-27.461,153.038
Crisis & Emergency Services,General Crisis and Emergency Services,Aftercare - Moorooka,We are now the longest-serving organisation of its,http://www.aftercare.com.au,(07) 3249 3800,313 Example Street,MOOROOKA,QLD,4105,-27.542,153.02
Crisis & Emergency Services,General Crisis and Emergency Services,Anglicare Southern Queensland,Anglicare Southern Queensland is a proud member of,http://www.anglicaresq.org.au,1300 610 610,314 Example Street,BRISBANE,QLD,4000,-27.463,153.03
Crisis & Emergency Services,General Crisis and Emergency Services,Aust. Biocleaning  - Trauma & Biohazard Cleaning Services,Aust biocleaning are a 24hr service. We are a disc,http://www.austbiocleaning.vpweb.com.au,0404 368 277,315 Example Street,,,,-27.467,153.025
Crisis & Emergency Services,General Crisis and Emergency Services,Brisbane Youth Service - Centre for Young Families ,Crisis support for young families,http://www.brisyouth.org/what-we-do/centre-for-young-families/,(07) 3620 2400,316 Example Street,GREENSLOPES,QLD,4120,-27.501,153.044
Crisis & Emergency Services,General Crisis and Emergency Services,Brisbane Youth Service - Centre for Young Women Stones Corner,Crisis and emergency services for young women,http://www.brisyouth.org,(07) 3620 2452,317 Example Street,GREENSLOPES,QLD,4120,-27.501,153.044
Crisis & Emergency Services,General Crisis and Emergency Services,Community Care - Responding to Communities - Karana Downs,"Service Method: Advice & Information, Counselling,",,0414 928 641,318 Example Street,KARANA DOWNS,QLD,4306,-27.546,152.828
Crisis & Emergency Services,General Crisis and Emergency Services,Elorac Place,"Tenents are seleected based on age, they must be u",,(07) 3271 3592,319 Example Street,ELLEN GROVE,QLD,4078,-27.614,152.938
Crisis & Emergency Services,General Crisis and Emergency Services,Energex - Loss of Power Supply ,Ring above number 24 hours / 7 days a week to repo,http://www.energex.com.au,13 12 53,320 Example Street,NEWSTEAD,QLD,4006,-27.443,153.045
Crisis & Emergency Services,General Crisis and Emergency Services,Food Shed - Ellen Grove,"Service Method: Community Work,",https://www.wmq.org.au/services/youth-and-family-support/young-parents-support/elorac-place-community-centre,1800 493 753,321 Example Street,ELLEN GROVE,QLD,4300,-27.611,152.937
Crisis & Emergency Services,General Crisis and Emergency Services,Footprints In Brisbane Inc - Newstead,Footprints is a not-for-profit provider of communi,http://www.footprintsinc.org.au,(07) 3252 3488,322 Example Street,FORTITUDE VALLEY,QLD,4006,-27.451,153.038
Crisis & Emergency Services,General Crisis and Emergency Services,GIVIT,GIVIT is a national not-for-profit connecting thos,http://www.givit.org.au,0404 687 663,323 Example Street,,,,-27.448,153.039
Crisis & Emergency Services,General Crisis and Emergency Services,Greek Welfare Centre - South Brisbane,Food parcels Eligibility Must live in local area M,http://goccare.com.au/community-support/welfare-centre/,(07) 3844 3669,324 Example Street,SOUTH BRISBANE,QLD,4101,-27.479,153.015
Crisis & Emergency Services,General Crisis and Emergency Services,Homeless Hotline,Homeless Hotline is a phone information and referr,https://www.qld.gov.au/housing/emergency-temporary-accommodation/homeless-persons-information-qld/,1800 474 753,325 Example Street,,,,-27.47,153.023
Crisis & Emergency Services,General Crisis and Emergency Services,Micah Projects Inc,FLOOD RECOVERY HOUSING & SUPPORT SERVICE After 20 ,http://www.micahprojects.org.au,(07) 3029 7000,326 Example Street,WEST END,QLD,4101,-27.481,153.011
Crisis & Emergency Services,General Crisis and Emergency Services,Office of the Public Guardian,Protects the rights and interests of adults with i,http://www.publicguardian.qld.gov.au,(07) 3234 0870,327 Example Street,BRISBANE CITY,QLD,4000,-27.467,153.021
Crisis & Emergency Services,General Crisis and Emergency Services,Police Link,"Every day the Queensland Police Service, your poli",https://www.police.qld.gov.au/programs/policelink/,13 14 44,328 Example Street,BRISBANE,QLD,4000,-27.467,153.017
Crisis & Emergency Services,General Crisis and Emergency Services,Prince Charles Hospital - Metro North Mental Health Service,The service works in collaboration with primary he,,1800 112 403,329 Example Street,CHERMSIDE,QLD,4032,-27.392,153.028
Crisis & Emergency Services,General Crisis and Emergency Services,Queensland Ambulance Service - Fortitude Valley,"Queensland AmbulanceService, Brisbane Regional Off",,(07) 3635 1879,330 Example Street,FORTITUDE VALLEY,QLD,4006,-27.458,153.034
Crisis & Emergency Services,General Crisis and Emergency Services,Queensland Ambulance Service - Statewide,The Queensland Ambulance Service (QAS) provides pr,https://www.ambulance.qld.gov.au/index.html,13 74 68,331 Example Street,BRISBANE,QLD,4000,-27.471,153.023
Crisis & Emergency Services,General Crisis and Emergency Services,Queensland Country Women's Association - Public Rural Crisis Fund,The Public Rural Crisis Fund was established by th,http://www.qcwa.org.au/,(07) 3026 1220,332 Example Street,BRISBANE,QLD,4000,-27.459,153.02
Crisis & Emergency Services,General Crisis and Emergency Services,Salvation Army - (QLD Phone Service),Food vouchers Financial assistance Call this numbe,http://www.salvos.org.au,(07) 3222 6666,333 Example Street,,,,-27.47,153.023
Crisis & Emergency Services,General Crisis and Emergency Services,Salvation Army - Fortitude Valley (Community Support Service),Food vouchers and parcels Transport vouchers (with,,(07) 3852 4438,334 Example Street,FORTITUDE VALLEY,QLD,4006,-27.454,153.032
Crisis & Emergency Services,General Crisis and Emergency Services,Youth Emergency Services (YES) - Statewide Phoneline,YES as an organisation serves the greater communit,,(07) 3357 7655,335 Example Street,,,,-27.47,153.023
Crisis & Emergency Services,Welfare Assistance & Support Services,139 Club - New Farm,This service is for individuals and families exper,http://www.139club.com.au,(07) 3254 1144,336 Example Street,NEW FARM,QLD,4005,-27.461,153.038
Crisis & Emergency Services,Welfare Assistance & Support Services,Australian Red Cross - Homestay program,The Homestay program is defined by the delivery of,http://www.redcross.org.au/homelessness.aspx,(07) 3863 0448,337 Example Street,,,,-27.472,153.004
Crisis & Emergency Services,Welfare Assistance & Support Services,Australian Red Cross - Milton,Australian Red Cross provides Welfare Assistance a,http://www.redcross.org.au,(07) 3367 7222,338 Example Street,MILTON,QLD,4064,-27.472,153.004
Crisis & Emergency Services,Welfare Assistance & Support Services,BRIC Housing - Spring Hill,The Better Housing Projects provide housing accomm,http://www.bric.org.au/,(07) 3230 5555,339 Example Street,SPRING HILL,QLD,4000,-27.459,153.02
Crisis & Emergency Services,Welfare Assistance & Support Services,Brisbane Housing Company (BHC),"A not-for-profit organisation, our vision is to cr",,(07) 3307 3000,340 Example Street,SPRING HILL,QLD,4000,-27.463,153.025
Crisis & Emergency Services,Welfare Assistance & Support Services,Brisbane Youth Service - Centre for Young Families ,Support services for young families,http://www.brisyouth.org/what-we-do/centre-for-young-families/,(07) 3620 2400,341 Example Street,GREENSLOPES,QLD,4120,-27.501,153.044
Crisis & Emergency Services,Welfare Assistance & Support Services,Brisbane Youth Service - Centre for Young Women Stones Corner,Support services for young women,http://www.brisyouth.org,(07) 3620 2452,342 Example Street,GREENSLOPES,QLD,4120,-27.501,153.044
Crisis & Emergency Services,Welfare Assistance & Support Services,Centrelink Customer Service Centre - Inala,Customer Service Centres See a Customer Service Ad,http://www.humanservices.gov.au/,13 12 72,343 Example Street,INALA,QLD,4077,-27.601,152.974
Crisis & Emergency Services,Welfare Assistance & Support Services,Centrelink Customer Service Centre - Mitchelton,Customer Service Centres See a Customer Service Ad,http://www.humanservices.gov.au/,13 12 72,344 Example Street,MITCHELTON,QLD,4053,-27.412,152.977
Crisis & Emergency Services,Welfare Assistance & Support Services,Centrelink Customer Service Centre - Mount Gravatt,Customer Service Centres See a Customer Service Ad,http://www.humanservices.gov.au/,13 12 72,345 Example Street,MT GRAVATT,QLD,4122,-27.558,153.082
Crisis & Emergency Services,Welfare Assistance & Support Services,Centrelink Customer Service Centre - Nundah,Customer Service Centres See a Customer Service Ad,http://www.humanservices.gov.au/,13 12 72,346 Example Street,NUNDAH,QLD,4012,-27.401,153.059
Crisis & Emergency Services,Welfare Assistance & Support Services,Centrelink Customer Service Centre - South Brisbane,Customer Service Centres See a Customer Service Ad,http://www.humanservices.gov.au/,13 12 72,347 Example Street,BRISBANE,QLD,4102,-27.487,153.029
Crisis & Emergency Services,Welfare Assistance & Support Services,Centrelink Customer Service Centre - Toowong,Customer Service Centres See a Customer Service Ad,http://www.humanservices.gov.au/,13 12 72,348 Example Street,TOOWONG,QLD,4066,-27.484,152.991
Crisis & Emergency Services,Welfare Assistance & Support Services,Centrelink Customer Service Centre - Wynnum,Customer Service Centres See a Customer Service Ad,http://www.humanservices.gov.au/,13 12 72,349 Example Street,WYNNUM,QLD,4178,-27.446,153.172
Crisis & Emergency Services,Welfare Assistance & Support Services,Elorac Place,"Tenents are seleected based on age, they must be u",,(07) 3271 3592,350 Example Street,ELLEN GROVE,QLD,4078,-27.614,152.938
Crisis & Emergency Services,Welfare Assistance & Support Services,Footprints In Brisbane Inc - Newstead,Footprints is a not-for-profit provider of communi,http://www.footprintsinc.org.au,(07) 3252 3488,351 Example Street,FORTITUDE VALLEY,QLD,4006,-27.451,153.038
Crisis & Emergency Services,Welfare Assistance & Support Services,Greek Welfare Centre - South Brisbane,Food parcels Eligibility Must live in local area M,http://goccare.com.au/community-support/welfare-centre/,(07) 3844 3669,352 Example Street,SOUTH BRISBANE,QLD,4101,-27.479,153.015
Crisis & Emergency Services,Welfare Assistance & Support Services,HART4000 - Homelessness Assistance and Referral Team,HART4000We are an assessment and referral team tha,http://www.under1roof.org.au/contact-us/,(07) 3004 0100,353 Example Street,FORTITUDE VALLEY,QLD,4006,-27.454,153.034
Crisis & Emergency Services,Welfare Assistance & Support Services,Homeless Hotline,Homeless Hotline is a phone information and referr,https://www.qld.gov.au/housing/emergency-temporary-accommodation/homeless-persons-information-qld/,1800 474 753,354 Example Street,,,,-27.47,153.023
Crisis & Emergency Services,Welfare Assistance & Support Services,Inala Respite Centre,The Inala Day Respite Centre offers day care for f,http://www.inalarespitecentre.com.au/,(07) 3278 8432,355 Example Street,INALA,QLD,4077,-27.605,152.973
Crisis & Emergency Services,Welfare Assistance & Support Services,Micah Projects Inc,Supportive Housing Services Home ' Dignity ' Safet,http://www.micahprojects.org.au,(07) 3029 7000,356 Example Street,WEST END,QLD,4101,-27.481,153.011
Crisis & Emergency Services,Welfare Assistance & Support Services,MyGov - Brisbane,A secure myGov account lets you link a range of Au,http://www.humanservices.gov.au/,13 23 07,357 Example Street,BRISBANE,QLD,4000,-27.467,153.023
Crisis & Emergency Services,Welfare Assistance & Support Services,North Brisbane Partners in Recovery,Please click here to contact this service online R,http://www.northbrisbane.pirinitiative.com.au/contact/,1800 752 235,358 Example Street,,,,-27.47,153.023
Crisis & Emergency Services,Welfare Assistance & Support Services,Nundah House - Enternally Supported Transitional Accommodation,Nundah House referrals are only accepted through o,,(07) 3269 9912,359 Example Street,,,,-27.403,153.06
Crisis & Emergency Services,Welfare Assistance & Support Services,Prince Charles Hospital - Metro North Mental Health Service,The service works in collaboration with primary he,,1800 112 403,360 Example Street,CHERMSIDE,QLD,4032,-27.392,153.028
Crisis & Emergency Services,Welfare Assistance & Support Services,Royal Brisbane Hospital - Homeless Health Outreach Team (HHOT),The Homeless Health Outreach Team provides service,http://www.health.qld.gov.au/rbwh/services/mh-services.asp,,361 Example Street,,,,-27.47,153.023
Crisis & Emergency Services,Welfare Assistance & Support Services,Salvation Army - (QLD Phone Service),Food vouchers Financial assistance Call this numbe,http://www.salvos.org.au,(07) 3222 6666,362 Example Street,,,,-27.47,153.023
Crisis & Emergency Services,Welfare Assistance & Support Services,Salvation Army - Fortitude Valley (Community Support Service),Food vouchers and parcels Transport vouchers (with,,(07) 3852 4438,363 Example Street,FORTITUDE VALLEY,QLD,4006,-27.454,153.032
Crisis & Emergency Services,Welfare Assistance & Support Services,Sandgate House - Transitional & Life Skills Program,"This service provides transitional Accommodation, ",,(07) 3269 9912,364 Example Street,,,,-27.317,153.067
Crisis & Emergency Services,Welfare Assistance & Support Services,The Salvation Army - Inala,Weekly free community Breakfast-Sunday 9am-10:30am,,(07) 3372 9111,365 Example Street,INALA,QLD,4077,-27.597,152.979
Crisis & Emergency Services,Welfare Assistance & Support Services,UnitingCare Community - Upper Mt Gravatt,Family Intervention Service'Mt Gravatt,http://www.uccommunity.org.au/,(07) 3340 3300,366 Example Street,UPPER MOUNT GRAVATT,QLD,4122,-27.558,153.082
Crisis & Emergency Services,Welfare Assistance & Support Services,Windsor House - Immediate Response Program,"We do not accept families, accompanying children o",,(07) 3357 6504,367 Example Street,,,,-27.436,153.031
Crisis & Emergency Services,Welfare Assistance & Support Services,Zillmere Family Accommodation Program,Zillmere Family Accommodation Program provides sho,,(07) 3865 2880,368 Example Street,ZILLMERE,QLD,4034,-27.357,153.038
Health Services,Aboriginal  Health Services,Inala Community Health Centre,"Alcohol, Tobacco and Other DrugsBreastScreenChild ",http://www.health.qld.gov.au/services/metrosouth/inala-chc.asp,(07) 3275 5333,369 Example Street,INALA,QLD,4077,-27.6,152.971
Health Services,Aboriginal  Health Services,National Disability Services - Queensland,We provide services in the Toowoomba Regional Coun,http://www.nds.org.au/,(07) 3357 4188,370 Example Street,LUTWYCHE,QLD,4030,-27.422,153.034
Health Services,Aboriginal  Health Services,Wynnum Health Service,Hospital servicesPrimary CareGeneral MedicineMedic,http://www.health.qld.gov.au/redland-wynnum/default.asp,(07) 3893 8000,371 Example Street,LOTA,QLD,4179,-27.464,153.18
Health Services,Adult Health Services,CPL's Bowen Hills Disability Employment Services,Looking for a job? Or do you need local and reliab,http://www.cpl.org.au/locations-contact/locations/bowen-hills,1800 275 753,372 Example Street,BOWEN HILLS,QLD,4006,-27.442,153.039
Health Services,Adult Health Services,CPL's East Brisbane Disability Training,Want to start your life changing career in the dis,http://www.cpl.org.au/locations-contact/locations/east-brisbane,1800 275 753,373 Example Street,EAST BRISBANE,QLD,4169,-27.482,153.04
Health Services,Adult Health Services,CPL's Geebung Services,"At CPL's Geebung service, plan for the future and ",http://www.cpl.org.au/locations-contact/locations/geebung,1800 275 753,374 Example Street,GEEBUNG,QLD,4034,-27.375,153.054
Health Services,Adult Health Services,CPL's Holland Park Disability Employment Services,Looking for a job? Or need local and reliable staf,http://www.cpl.org.au/locations-contact/locations/holland-park,1800 275 753,375 Example Street,HOLLAND PARK WEST,QLD,4121,-27.519,153.061
Health Services,Adult Health Services,Head Start Testing,Head start Testing provide high quality hiv rapid ,http://www.headstarttesting.com,(02) 8003 4192,376 Example Street,,,,-27.584,152.961
Health Services,Adult Health Services,Ozcare - Brisbane North,"Home Nursing Services, Occupational Therapy, Physi",http://www.ozcare.org.au/,1800 692 273,377 Example Street,CHERMSIDE,QLD,4032,-27.389,153.032
Health Services,Adult Health Services,RAPID,"Whatever your story, RAPID is a safe place to get ",http://www.rapid.org.au/,(07) 3013 5566,378 Example Street,FORTITUDE VALLEY,QLD,4006,-27.457,153.036
Health Services,Adult Health Services,Royal Flying Doctor Service of Australia (Queensland Section),Royal Flying Doctors fly fortnightly to Urandangi ,https://www.flyingdoctor.org.au,(07) 3860 1100,379 Example Street,BRISBANE AIRPORT,QLD,4008,-27.374,153.123
Health Services,Adult Health Services,SMBHealth,Our vision is to create a healthy and happy world.,https://smbhealth.com,0421 454 209,380 Example Street,EAST BRISBANE,QLD,4169,-27.487,153.042
Health Services,Adult Health Services,Urban Strength Calisthenics and Gymnastics Strength Training,Community strength training sessions with Urban St,https://www.urbanstrength.com.au,,381 Example Street,NEW FARM,QLD,4005,-27.466,153.05
Health Services,Adult Health Services,WELL & WISE PTY LTD - Wilston,"Just 8 km North of Brisbane City, in family friend",http://www.wellandwise.com.au,(07) 3356 7211,382 Example Street,WILSTON,QLD,4051,-27.427,153.019
Health Services,Allied Health,All Aged Care,"We provide podiatry, physiotherapy, occupational t",http://www.allagedcare.com.au,(07) 3211 3833,383 Example Street,BRISBANE CITY,QLD,4000,-27.467,153.022
Health Services,Allied Health,Alzheimers Association Of Queensland - Upper Mt Gravatt,"Physiotherapy, Occupational Therapy and Speech Pat",http://www.alzheimersonline.org,(07) 3422 3000,384 Example Street,UPPER MT GRAVATT,QLD,4122,-27.56,153.085
Health Services,Allied Health,Arthritis & Osteoporosis Queensland,"Through a Helpline (1800 011 041), web and print i",http://www.arthritis.org.au,(07) 3857 4200,385 Example Street,WINDSOR,QLD,4051,-27.437,153.031
Health Services,Allied Health,Asthma Foundation Queensland - Brisbane,This FREE monthly workshop provides information on,http://www.asthmaaustralia.org.au,(07) 3252 7677,386 Example Street,FORTITUDE VALLEY,QLD,4006,-27.452,153.031
Health Services,Allied Health,Asthma Foundation Queensland - Information Line,Our asthma information services are free and offer,http://www.asthmaaustralia.org.au,1800 278 462,387 Example Street,FORTITUDE VALLEY,QLD,4006,-27.452,153.031
Health Services,Allied Health,Australian Pain Management Association Inc.,Services offered include Pain Link helpline 1300 3,http://www.painmanagement.org.au,1300 340 357,388 Example Street,BRISBANE,QLD,4000,-27.471,153.023
Health Services,Allied Health,Barham Chiropractic - Wavell Heights,We provide free chiropractic care for children suf,http://www.barhamchiro.com.au,(07) 3266 4866,389 Example Street,WAVELL HEIGHTS,QLD,4012,-27.399,153.048
Health Services,Allied Health,Better Life Centre,We offer you and your family access to a variety o,http://www.betterlife.com.au,(07) 3353 5430,390 Example Street,KELVIN GROVE,QLD,4059,-27.451,153.011
Health Services,Allied Health,BreastScreen - QLD - Brisbane Southside Service,Free breast cancer screening for women aged 40 and,http://www.breastscreen.qld.gov.au,(07) 3182 6777,391 Example Street,NATHAN,QLD,4111,-27.558,153.049
Health Services,Allied Health,Brisbane Child Psychologist,Dr Natalie Gunn is an educational and developmenta,http://www.hartleypsych.com.au,(07) 3105 5937,392 Example Street,RED HILL,QLD,4059,-27.455,153.006
Health Services,Allied Health,Centacare - Aspley Respite Centre,"Centre Based Day Care, Domestic Assistance, Allied",http://centacarebrisbane.net.au/,1300 236 822,393 Example Street,ASPLEY,QLD,4034,-27.366,153.034
Health Services,Allied Health,Centacare - Enoggera Day Respite Centre,"Centre Based Day Care, Domestic Assistance, Allied",http://www.centacarebrisbane.net.au/,1300 236 822,394 Example Street,ENOGGERA,QLD,4051,-27.415,152.99
Health Services,Allied Health,Centacare - Northgate Community Services,"Centre Based Day Care, Domestic Assistance, Case M",http://www.centacarebrisbane.net.au,1300 236 822,395 Example Street,NORTHGATE,QLD,4013,-27.397,153.073
Health Services,Allied Health,Centre For Integrative Health,A multidisciplinary clinic devoted to the preventi,http://cfih.com.au/,(07) 3161 0845,396 Example Street,SPRING HILL,QLD,4000,-27.464,153.026
Health Services,Allied Health,Children By Choice Association Incorporated,Children by Choice provide a Queensland-wide telep,http://www.childrenbychoice.org.au,(07) 3357 5377,397 Example Street,WINDSOR,QLD,4030,-27.434,153.031
Health Services,Allied Health,Children's Health QLD Hospital and Health Service,Provides Clinical Nurse Consultant across various ,,,398 Example Street,HERSTON,QLD,4029,-27.447,153.027
Health Services,Allied Health,Consentability at Iridium Health,Consentability provides sexuality and relationship,http://www.consentability.com,0406 001 166,399 Example Street,SOUTH BRISBANE,QLD,4101,-27.476,153.015
Health Services,Allied Health,CPL's Bowen Hills Disability Employment Services,Looking for a job? Or do you need local and reliab,http://www.cpl.org.au/locations-contact/locations/bowen-hills,1800 275 753,400 Example Street,BOWEN HILLS,QLD,4006,-27.442,153.039
Health Services,Allied Health,CPL's East Brisbane Disability Training,Want to start your life changing career in the dis,http://www.cpl.org.au/locations-contact/locations/east-brisbane,1800 275 753,401 Example Street,EAST BRISBANE,QLD,4169,-27.482,153.04
Health Services,Allied Health,CPL's Geebung Services,Read more about CPL's therapy and health services.,http://www.cpl.org.au/locations-contact/locations/geebung,1800 275 753,402 Example Street,GEEBUNG,QLD,4034,-27.375,153.054
Health Services,Allied Health,CPL's Holland Park Disability Employment Services,Looking for a job? Or need local and reliable staf,http://www.cpl.org.au/locations-contact/locations/holland-park,1800 275 753,403 Example Street,HOLLAND PARK WEST,QLD,4121,-27.519,153.061
Health Services,Allied Health,CPL's Mount Gravatt Services,Read more about CPL's therapy and health services.,http://www.cpl.org.au/locations-contact/locations/mount-gravatt,1800 275 753,404 Example Street,MOUNT GRAVATT EAST,QLD,4122,-27.541,153.083
Health Services,Allied Health,CQ RAICCHO,Provides Health Worker and Nurse across various re,http://www.cqraiccho.com.au/,,405 Example Street,BOWEN HILLS,QLD,4006,-27.443,153.038
Health Services,Allied Health,"Day Therapy Centre, Allied Health Services",Subsidized services / Govt Funded,http://www.prescare.org.au,(07) 3710 2318,406 Example Street,COOPERS PLAINS,QLD,4108,-27.569,153.036
Health Services,Allied Health,Deadly Ears Program - Children's Health QHHS,The award-winning Deadly Ears Program leads Queens,https://www.health.qld.gov.au/deadly_ears/,(07) 3310 7709,407 Example Street,SOUTH BRISBANE,QLD,4101,-27.48,153.022
Health Services,Allied Health,Dr Brett Collins,Provides Physician - Surgery - Orthopaedics across,,(07) 3834 6635,408 Example Street,SPRING HILL,QLD,4000,-27.465,153.022
Health Services,Allied Health,Dr Farhan Syed T/A Syed Cardiology Pty Ltd as trustee for Syed Cardiology Trust,Provides Physician - Cardiology across various reg,,,409 Example Street,CHERMSIDE,QLD,4032,-27.385,153.029
Health Services,Allied Health,Dr Fiona Frances Panizza,Provides Physician - Ear Nose & Throat across vari,,,410 Example Street,SPRINGHILL,QLD,4000,-27.46,153.026
Health Services,Allied Health,Dr Katherine Smallcombe,Provides Physician - Ophthalmology across various ,,(07) 3063 1600,411 Example Street,PADDINGTON,QLD,4064,-27.461,153.002
Health Services,Allied Health,Dr Mark Norrie,Provides Physician - Gastroenterology across vario,https://www.montserrat.com.au/mark-norrie.html,(07) 3833 6701,412 Example Street,INDOOROOPILLY,QLD,4068,-27.502,152.974
Health Services,Allied Health,Dr Matthew Broadhurst,Provides Physician - Surgery - Ear Nose & Throat a,,(07) 3831 2222,413 Example Street,SPRING HILL,QLD,4000,-27.461,153.021
Health Services,Allied Health,Dr Rowan Porter,Provides Optometry and Physician - Ophthalmology a,,,414 Example Street,MOUNT GRAVATT,QLD,4122,-27.54,153.068
Health Services,Allied Health,Dr Russell Bird,Provides Physician - Surgery - Ear Nose & Throat a,,(07) 3832 5144,415 Example Street,SPRING HILL,QLD,4000,-27.465,153.023
Health Services,Allied Health,Dr Simon Bowler,Provides Physician - Respiratory across various re,http://www.materonline.org.au/specialist/respiratory-and-sleep-medicine/dr-simon-bowler,(07) 3163 1178,416 Example Street,SOUTH BRISBANE,QLD,4101,-27.484,153.027
Health Services,Allied Health,Dr Simon F Journeaux,Provides Physician - Surgery - Orthopaedics across,,(07) 3010 5760,417 Example Street,SOUTH BRISBANE,QLD,4101,-27.484,153.028
Health Services,Allied Health,Dr Wayne Thomas Kelly,Provides Physician - Respiratory across various re,,(07) 3839 0325,418 Example Street,BRISBANE CITY,QLD,4001,-27.461,153.021
Health Services,Allied Health,Dynamic Self Psychology Service,Dynamic Self Psychology Service offers therapeutic,http://www.dynamicself.com.au,0490 468 984,419 Example Street,SPRING HILL,QLD,4000,-27.464,153.025
Health Services,Allied Health,ERG Pty Ltd T/As Brisbane Eye Clinic,Provides Physician - Ophthalmology and Ophthalmolo,,(07) 3832 1700,420 Example Street,SPRING HILL,QLD,4000,-27.464,153.025
Health Services,Allied Health,Health and Home Safety Group - Brisbane and Ipswich,Health and Home Safety Group provides a mobile Occ,http://www.healthandhomesafetygroup.com.au,0422 552 976,421 Example Street,,,,-27.519,153.038
Health Services,Allied Health,Heart of Australia  - Queensland,Provides Physician - Cardiology and Sonography acr,http://www.heartofaustralia.com/,1800 432 786,422 Example Street,,,,-27.491,152.982
Health Services,Allied Health,I G Brown Medical Pty Ltd,Provides Physician - Respiratory across various re,,(07) 3832 1717,423 Example Street,SPRING HILL,QLD,4000,-27.464,153.025
Health Services,Allied Health,Institute for Urban Indigenous Health Ltd,Provides Diabetes Education and Occupational Thera,http://www.iuih.org.au/,(07) 3648 9500,424 Example Street,BOWEN HILLS,QLD,4006,-27.446,153.037
Health Services,Allied Health,Joining Hands,Joining Hands is a social enterprise. We exist to ,http://www.joininghands.com.au,0431 436 939,425 Example Street,,,,-27.493,153.076
Health Services,Allied Health,Jubilee Community Care Association Inc,Jubilee Community Care provides care and assistanc,http://www.jccagedcare.org.au,(07) 3871 3220,426 Example Street,INDOOROOPILLY,QLD,4068,-27.5,152.978
Health Services,Allied Health,KNOTS CORNER MASSAGE CLINIC - Greenslopes,"Remedial massage and sports massage clinic
Knotsc",,0409 675 860,427 Example Street,GREENSLOPES,QLD,4120,-27.499,153.047
Health Services,Allied Health,Lifestyle Therapies and Training Solutions (LTTS),Provides Occupational Therapy and Speech Pathology,,1300 994 854,428 Example Street,ENOGGERA,QLD,4051,-27.418,152.997
Health Services,Allied Health,Metro North Hospital and Health Service (ICOP),Provides Nurse - Cardiology and Physician - Cardio,,,429 Example Street,CHERMSIDE,QLD,4032,-27.385,153.029
Health Services,Allied Health,Metro North Hospital and Health Service (IROC),Provides Nurse - Respiratory and Scientist - Respi,,,430 Example Street,CHERMSIDE,QLD,4032,-27.385,153.029
Health Services,Allied Health,Metro South Hospital and Health Service (Princess Alexandra Hospital),Provides Physician - Cardiology and Nurse - Cardio,,(07) 3176 2111,431 Example Street,WOOLLOONGABBA,QLD,4102,-27.497,153.033
Health Services,Allied Health,Michael Young Optometrists,Provides Optometry across various regions of Queen,,(07) 3245 5510,432 Example Street,CHANDLER,QLD,4155,-27.517,153.157
Health Services,Allied Health,OCCUPATIONAL THERAPY AT HOME,Occupational Therapy at Home provides a mobile hom,http://www.otathomebrisbane.com.au,0415 562 360,433 Example Street,SINNAMON PARK,QLD,4073,-27.547,152.943
Health Services,Allied Health,Prime Foot Care Provider Pty Ltd,Prime Foot Care Provider is a mobile podiatry serv,http://www.primefootcare.com.au,(07) 3356 3579,434 Example Street,NEWMARKET,QLD,4051,-27.438,153.006
Health Services,Allied Health,Psychology Consultants - Newmarket,Psychology Consultants are a group of Clinical Psy,http://www.psychologyconsultants.com.au,(07) 3356 8255,435 Example Street,NEWMARKET,QLD,4051,-27.437,153.007
Health Services,Allied Health,QLD Speech Pathology Services,At Queensland Speech Pathology Services our aim is,http://www.speechtherapistqld.com.au/,(07) 3367 2058,436 Example Street,BARDON,QLD,4065,-27.461,152.982
Health Services,Allied Health,Queensland Alliance for Mental Health (QAMH),The Queensland Alliance advocates for community se,http://www.qldalliance.org.au,(07) 3252 9411,437 Example Street,STONES CORNER,QLD,4120,-27.504,153.047
Health Services,Allied Health,Queensland Sleep Disorder Unit,Provides Scientist - Respiratory across various re,,(07) 3846 7955,438 Example Street,SOUTH BRISBANE,QLD,4101,-27.484,153.027
Health Services,Allied Health,Queensland Spinal Cord Injuries Service - Spinal Injuries Unit,The Queensland Spinal Injuries Unit provides acute,http://www.health.qld.gov.au/qscis/,(07) 3176 5061,439 Example Street,WOOLLOONGABBA,QLD,4102,-27.499,153.033
Health Services,Allied Health,Queensland Spinal Cord Injuries Service - Spinal Outreach Team,The Spinal Outreach Team (SPOT) provides allied he,http://www.health.qld.gov.au/qscis/,1800 624 832,440 Example Street,BURANDA,QLD,4102,-27.572,152.957
Health Services,Allied Health,Queensland Spinal Cord Injuries Service - Transitional Rehabilitation Program,The Transitional Rehabilitation Program (TRP)  ass,http://www.health.qld.gov.au/qscis/,(07) 3406 2322,441 Example Street,BURANDA,QLD,4102,-27.572,152.957
Health Services,Allied Health,QUT Health Clinics - Optometry,Provides Optometry across various regions of Queen,,(07) 3138 9777,442 Example Street,KELVIN GROVE,QLD,4059,-27.453,153.013
Health Services,Allied Health,Reclaim Health and Rehabilitation,"We believe in order to treat, fix or cure our clie",http://www.reclaimhealthandrehab.com.au/,0401 487 760,443 Example Street,MIDDLE PARK,QLD,4074,-27.554,152.923
Health Services,Allied Health,Royal Flying Doctor Service of Australia (Queensland Section),Provides doctors and nurses  - health worker acros,https://www.flyingdoctor.org.au,(07) 3860 1100,444 Example Street,BRISBANE AIRPORT,QLD,4008,-27.374,153.123
Health Services,Allied Health,South West Brisbane Community Options - Jamboree Heights,South West Brisbane Community Options is a Other A,,(07) 3376 4841,445 Example Street,JAMBOREE HEIGHTS,QLD,4074,-27.556,152.939
Health Services,Allied Health,Spot4You & Spot4Kids - Speech Pathology & Occupational Therapy Brisbane,Speech Pathology & Occupational Therapy,http://www.spot4you.com.au,1300 776 849,446 Example Street,,,,-27.471,153.023
Health Services,Allied Health,Swallowing Solutions,Swallowing Solutions is based on Brisbane's west s,,0413 374 490,447 Example Street,,,,-27.474,152.996
Health Services,Allied Health,The Hearing Voices Group - Mt Gravatt,Please contact for more information.,,(07) 3343 9282,448 Example Street,UPPER MOUNT GRAVATT,QLD,4122,-27.556,153.084
Health Services,Allied Health,Tina Sarracino exercise physiology,Group or individual exercise for over 60's with an,,0439 732 867,449 Example Street,TOOWONG,QLD,4066,-27.484,152.988
Health Services,Allied Health,Transitional Support - Counselling & Career Services,"Transitional Support, an organisation that provide",http://transitionalsupport.com.au,1800 744 568,450 Example Street,SUMNER,QLD,4074,-27.567,152.938
Health Services,Allied Health,True Relationships & Reproductive Health - Windsor,Provides Nurse - Womens Health across various regi,http://www.true.org.au,(07) 3250 0240,451 Example Street,WINDSOR,QLD,4030,-27.434,153.03
Health Services,Allied Health,Vitiligo Solutions Clinic,Need a Vitiligo cure? At the Vitiligo Solutions Cl,http://www.vitiligosolutions.com.au/,(07) 3871 3437,452 Example Street,TARINGA,QLD,4068,-27.492,152.979
Health Services,Allied Health,Wynnum Health Service,Hospital servicesPrimary CareGeneral MedicineMedic,http://www.health.qld.gov.au/redland-wynnum/default.asp,(07) 3893 8000,453 Example Street,LOTA,QLD,4179,-27.464,153.18
Health Services,Allied Health,your health exercise physiology,Exercise Physiology Services,http://www.yhep.com.au,0401 366 713,454 Example Street,THE GAP,QLD,4061,-27.436,152.939
Health Services,Child Youth & Family Health,Children's Health QLD Hospital and Health Service,Provides Physician - Psychiatry - Child and Adoles,,,455 Example Street,HERSTON,QLD,4029,-27.447,153.027
Health Services,Child Youth & Family Health,CPL's Mount Gravatt Services,"At CPL's Mt Gravatt service, we specialise in pers",http://www.cpl.org.au/locations-contact/locations/mount-gravatt,1800 275 753,456 Example Street,MOUNT GRAVATT EAST,QLD,4122,-27.541,153.083
Health Services,Child Youth & Family Health,Dr Irene Skiathitis,Provides Physician - Paediatrics across various re,,(07) 3359 0835,457 Example Street,STAFFORD HEIGHTS,QLD,4053,-27.401,153.008
Health Services,Child Youth & Family Health,Dr Tommy Tran,Provides Physician - Paediatrics across various re,http://tommytran.com.au/,(07) 3177 2000,458 Example Street,EAST BRISBANE,QLD,4169,-27.482,153.051
Health Services,Child Youth & Family Health,Institute for Urban Indigenous Health Ltd,Provides Occupational Therapy - Paediatrics across,http://www.iuih.org.au/,(07) 3648 9500,459 Example Street,BOWEN HILLS,QLD,4006,-27.446,153.037
Health Services,Community Health & Medical,Australian Institute for Suicide Research and Prevention - Mt Gravatt,The Australian Institute for Suicide Research and ,http://www.griffith.edu.au/health/australian-institute-suicide-research-prevention,(07) 3735 3379,460 Example Street,MT GRAVATT,QLD,4122,-27.543,153.066
Health Services,Community Health & Medical,Community Health Centre - Eight Mile Plains,Community Health Services provided in the Metro So,http://www.health.qld.gov.au/services/metrosouth/emp-chc.asp,(07) 3156 9400,461 Example Street,EIGHT MILE PLAINS,QLD,4113,-27.577,153.095
Health Services,Community Health & Medical,Community Health Centre - North West,Community Health services vary from centre to cent,,(07) 3335 8888,462 Example Street,KEPERRA,QLD,4054,-27.413,152.958
Health Services,Community Health & Medical,Continence Service - QLD,The Queensland Continence Service is a service for,,(07) 3246 3166,463 Example Street,EVERTON PARK,QLD,4053,-27.394,152.992
Health Services,Community Health & Medical,Integrate Place,Community Health & Medical,http://www.integrateplace.com.au,(07) 3396 3128,464 Example Street,WYNNUM,QLD,4178,-27.443,153.177
Health Services,Community Health & Medical,Lung Foundation Australia,Lung Foundation Australia is the only national cha,http://www.lungfoundation.com.au,1800 654 301,465 Example Street,MILTON,QLD,4064,-27.465,153.005
Health Services,Community Health & Medical,Northside Health Service District,The Northside Health Service District's new Centra,,1300 658 252,466 Example Street,FORTITUDE VALLEY,QLD,4006,-27.459,153.028
Health Services,Community Health & Medical,Principal Podiatry - Banyo,"Principal Podiatry Banyo
Experienced Podiatrist. ",http://www.principalpodiatry.com.au,(07) 3267 5473,467 Example Street,BANYO,QLD,4014,-27.376,153.075
Health Services,Community Health & Medical,Sinnamon Village Day Therapy Centre,We provide a range of vital community services and,https://www.wmq.org.au/locations/robina-service-hub,(07) 3714 5141,468 Example Street,SINNAMON PARK,QLD,4073,-27.538,152.949
Health Services,Community Health & Medical,The Prince Charles Hospital,Chermside Community Health Centre provides the fol,,(07) 3350 8111,469 Example Street,CHERMSIDE,QLD,4032,-27.392,153.028
Health Services,Community Health & Medical,Toowong Community Health Team,Community Health services vary from centre to cent,,(07) 3858 4444,470 Example Street,ASHGROVE,QLD,4060,-27.45,152.977
Health Services,Community Health & Medical,True Relationships & Reproductive Health - Windsor,Sexual and reproductive health services throughout,http://www.true.org.au,(07) 3250 0240,471 Example Street,WINDSOR,QLD,4030,-27.434,153.03
Health Services,Community Health & Medical,Vision Psychology Clinic,Brisbane psychologist and counselling centre: marr,http://www.visionpsychology.com,1800 877 924,472 Example Street,MT GRAVATT,QLD,4122,-27.537,153.078
Health Services,Drug & Alcohol Services,Abaleen Detoxification Services Group Inc,"Abaleen Detoxification Services offers a safe, pro",,(07) 3862 3543,473 Example Street,ALBION,QLD,4010,-27.431,153.046
Health Services,Drug & Alcohol Services,ADAWS  Adolescent Drug and Alcohol Service,Clarence Street previously known as ADAWS (Adolesc,http://youngadult@mater.org.au,(07) 3163 8400,474 Example Street,SOUTH BRISBANE,QLD,4101,-27.487,153.025
Health Services,Drug & Alcohol Services,Al Anon and Alateen Family Groups - Brisbane,The Al-Anon Family Groups are a fellowship of rela,http://www.al-anon.org.au/,(07) 3890 1244,475 Example Street,TINGALPA,QLD,4173,-27.475,153.128
Health Services,Drug & Alcohol Services,Alcoholics Anonymous - Brisbane Central Service Office,Alcoholics Anonymous is a fellowship of men and wo,http://www.aa.org.au/contact-central-service-offices.php#QLD,(07) 3255 9162,476 Example Street,ANNERLEY,QLD,4103,-27.509,153.033
Health Services,Drug & Alcohol Services,Alternatives To Violence Project Queensland Incorporated,"AVP is an independant, international network of tr",http://www.avpq.org.au,(07) 3286 2593,477 Example Street,SHERWOOD,QLD,4075,-27.531,152.983
Health Services,Drug & Alcohol Services,Bayside Transformations,Residential recovery service-faith based takes men,,(07) 4194 6621,478 Example Street,BRISBANE,QLD,4000,-27.467,153.141
Health Services,Drug & Alcohol Services,Centre for Human Potential (CFHP) Psychology and Coaching,The Centre For Human Potential has psychologists t,http://www.cfhp.com.au/,(07) 3211 1117,479 Example Street,BRISBANE,QLD,4000,-27.467,153.026
Health Services,Drug & Alcohol Services,Drug Arm - Annerley,"Alcohol and other drug program, clinical and preve",http://www.hoa.drugarm.com.au/,(07) 3620 8800,480 Example Street,ANNERLEY,QLD,4103,-27.509,153.032
Health Services,Drug & Alcohol Services,Drug Arm Helpline,Drug ARM Australasia is a not-for-profit organisat,http://www.hoa.drugarm.com.au/about-us,1300 656 800,481 Example Street,ANNERLEY,QLD,4103,-27.509,153.032
Health Services,Drug & Alcohol Services,Drug Arm SOS,DRUG ARM is a charitable organisation that assists,http://www.hoa.drugarm.com.au/,(07) 3620 8811,482 Example Street,ANNERLEY,QLD,4103,-27.509,153.032
Health Services,Drug & Alcohol Services,Gillies House,Gillies House is a halfway house for recovering al,https://www.vinnies.org.au/page/Find_Help/QLD/Housing/Mens_accommodation_-_Gillies_House_Brisbane/,(07) 3876 7329,483 Example Street,AUCHENFLOWER,QLD,4066,-27.474,153
Health Services,Drug & Alcohol Services,Harm Reduction Centre - Brisbane - BHRC,Brisbane Harm Reduction Centre is part of the Bial,,(07) 3238 4047,484 Example Street,BRISBANE,QLD,4001,-27.466,153.016
Health Services,Drug & Alcohol Services,Inala Community Health Centre,"Alcohol, Tobacco and Other DrugsBreastScreenChild ",http://www.health.qld.gov.au/services/metrosouth/inala-chc.asp,(07) 3275 5333,485 Example Street,INALA,QLD,4077,-27.6,152.971
Health Services,Drug & Alcohol Services,Integrate Place,Drug & Alcohol Services,http://www.integrateplace.com.au,(07) 3396 3128,486 Example Street,WYNNUM,QLD,4178,-27.443,153.177
Health Services,Drug & Alcohol Services,Ipswich Clinic,"Service Method: Direct Services, Methadone Program",,(07) 3817 2501,487 Example Street,IPSWICH,QLD,4305,-27.494,153.034
Health Services,Drug & Alcohol Services,Kids in Mind - Adolescent Drug and Alcohol Withdrawal Service - South Brisbane,The Adolescent Drug and Alcohol Withdrawal Service,http://www.kidsinmind.org.au/adaws,(07) 3163 8400,488 Example Street,SOUTH BRISBANE,QLD,4101,-27.487,153.025
Health Services,Drug & Alcohol Services,Lives Lived Well,We run a range of community and residential progra,http://www.liveslivedwell.org.au,1300 727 957,489 Example Street,SPRING HILL,QLD,4000,-27.461,153.024
Health Services,Drug & Alcohol Services,Mental Health Alcohol Tobacco and Other Drugs Service (MHATODS),MHATODS offers an integrated mental health and dru,,(07) 3310 9444,490 Example Street,SOUTH BRISBANE,QLD,4101,-27.48,153.022
Health Services,Drug & Alcohol Services,Ozcare - Illicit Drug & Alcohol Detox Centre,A live-in detox centre for men over 18 years who a,http://www.ozcare.org.au/,1800 692 273,491 Example Street,SOUTH BRISBANE,QLD,4101,-27.473,153.014
Health Services,Drug & Alcohol Services,Ozcare Drug & Alcohol Residential Recovery Service (Men) - The Haven,A residential service for men over 18 that have st,http://www.ozcare.org.au,1800 692 273,492 Example Street,,,,-27.5,153.056
Health Services,Drug & Alcohol Services,Ozcare Drug & Alcohol Residential Recovery Service (Women) - Lucinda House,"Ozcare is a leading not-for-profit organisation, p",http://www.ozcare.org.au,1800 692 273,493 Example Street,,,,-27.496,152.985
Health Services,Drug & Alcohol Services,Queensland Aboriginal & Islander Corp Alcohol & Drug Dependence Services,The Queensland Aboriginal and Torres Strait Island,,(07) 3358 5111,494 Example Street,NEW FARM,QLD,4005,-27.472,153.043
Health Services,Drug & Alcohol Services,Queensland AIDS Council - AIDS Information and Referral,The Queensland AIDS Council (QuAC) is an independe,http://www.qahc.org.au/contact,1800 177 434,495 Example Street,TENERIFFE,QLD,4005,-27.452,153.046
Health Services,Drug & Alcohol Services,Queensland Injectors Health Network - Bowen Hills (Mudmaps),Get back on track for the week with this Monday mo,http://www.quihn.org,(07) 3620 8111,496 Example Street,BOWEN HILLS,QLD,4006,-27.448,153.035
Health Services,Drug & Alcohol Services,Queensland Injectors Health Network - Bowen Hills (Treehouse Program),Are you or your children affected by your drug use,http://www.quihn.org,(07) 3620 8111,497 Example Street,BOWEN HILLS,QLD,4006,-27.448,153.035
Health Services,Drug & Alcohol Services,Quitline - Statewide,Quitline is a 24 hour information and support line,http://www.quitnow.gov.au/internet/quitnow/publishing.nsf/Content/home,13 78 48,498 Example Street,BRISBANE CITY,QLD,4000,-27.469,153.025
Health Services,Drug & Alcohol Services,Royal Brisbane Hospital - Homeless Health Outreach Team (HHOT),The Homeless Health Outreach Team provides service,http://www.health.qld.gov.au/rbwh/services/mh-services.asp,,499 Example Street,,,,-27.47,153.023
Health Services,Drug & Alcohol Services,Salvation Army - Red Hill (Moonyah),Moonyah is the Brisbane centre for the Salvation A,,(07) 3369 0922,500 Example Street,RED HILL,QLD,4059,-27.448,153.001
Health Services,Drug & Alcohol Services,Teen Challenge QLD Care - Brisbane,Teen Challenge Care Qld Ltd offers the following s,https://www.teenchallengeqld.org.au/,(07) 3422 1500,501 Example Street,GAYTHORNE,QLD,4051,-27.412,152.981
Health Services,Drug & Alcohol Services,Vision Psychology Clinic,Brisbane psychologist and counselling centre: marr,http://www.visionpsychology.com,1800 877 924,502 Example Street,MT GRAVATT,QLD,4122,-27.537,153.078
Health Services,Drug & Alcohol Services,White Warriors - Brisbane,We offer unique and creative support for anyone lo,,0438 548 732,503 Example Street,,,,-27.471,153.023
Health Services,Drug & Alcohol Services,Wynnum Health Service,Hospital servicesPrimary CareGeneral MedicineMedic,http://www.health.qld.gov.au/redland-wynnum/default.asp,(07) 3893 8000,504 Example Street,LOTA,QLD,4179,-27.464,153.18
Health Services,General Health Services,Ablecare Health and Integrated Therapy,AbleCare provides a functional holistic programme ,,(07) 3359 8330,505 Example Street,STAFFORD HEIGHTS,QLD,4053,-27.393,153.011
Health Services,General Health Services,Adverse Medicine Events Line,The Adverse Medicine Events (AME) Line provides co,https://www.nps.org.au/,1300 134 237,506 Example Street,BRISBANE CITY,QLD,4000,-27.469,153.025
Health Services,General Health Services,Alzheimers Association Of Queensland - Wooloowin,The Alzheimers Association of Queensland operates ,http://www.alzheimersonline.org,1800 639 331,507 Example Street,WOOLOOWIN,QLD,4030,-27.417,153.04
Health Services,General Health Services,Anglicare Southern Queensland,Anglicare Southern Queensland is a proud member of,http://www.anglicaresq.org.au,1300 610 610,508 Example Street,BRISBANE,QLD,4000,-27.463,153.03
Health Services,General Health Services,Aquarius Health Medispa,Aquarius Health Medispa is a Multi-Award winning h,https://aquariushealthmedispa.com.au,(07) 3003 4000,509 Example Street,BRISBANE CITY,QLD,4000,-27.472,153.026
Health Services,General Health Services,Arthritis Friendship Group,The Arthritis Friendship Group (formerly known as ,,(07) 3396 0196,510 Example Street,MANLY,QLD,4179,-27.45,153.183
Health Services,General Health Services,Arthritis Queensland Telephone Information Service,Arthritis and Osteoporosis Queensland provides an ,http://www.arthritis.org.au,1800 011 041,511 Example Street,WINDSOR,QLD,4030,-27.437,153.031
Health Services,General Health Services,Asthma Foundation Queensland - Brisbane,The Asthma Foundation of Queensland offers a varie,http://www.asthmaaustralia.org.au,(07) 3252 7677,512 Example Street,FORTITUDE VALLEY,QLD,4006,-27.452,153.031
Health Services,General Health Services,Australian Hearing - Brisbane,Australian Hearing is a provider of hearing care a,http://www.hearing.com.au,(07) 3237 6800,513 Example Street,BRISBANE,QLD,4000,-27.466,153.027
Health Services,General Health Services,Australian Hearing - Mount Gravatt,Australian Hearing is a provider of hearing care a,http://www.hearing.com.au,(07) 3347 4200,514 Example Street,UPPER MOUNT GRAVATT,QLD,4122,-27.56,153.082
Health Services,General Health Services,Australian Lifesaving Academy Queensland,Australian Lifesaving Academy Queensland is a regi,http://www.alaq.com.au/,(07) 3846 8047,515 Example Street,SOUTH BRISBANE,QLD,4101,-27.475,153.014
Health Services,General Health Services,Australian Putuitary Foundation Ltd,"Pituitary disorders affect more than 20,000 Austra",http://www.pituitary.asn.au,1300 331 807,516 Example Street,,,,-27.542,152.933
Health Services,General Health Services,Bikram Yoga Brisbane South,Bikram Yoga Brisbane South is a Yoga center and te,http://www.bikramyogabrisbanesouth.com,0439 419 480,517 Example Street,SALISBURY,QLD,4107,-27.543,153.029
Health Services,General Health Services,Brain Tumour Support Group,The Brain Tumour Support Group is a diverse group ,,(07) 3348 4614,518 Example Street,MOUNT GRAVATT,QLD,4122,-27.552,153.072
Health Services,General Health Services,Breast and Prostate Cancer Association of Queensland - Head Office,The Breast Cancer Association of Qld is a charity ,http://www.bcaq.com,(07) 3666 0614,519 Example Street,FORTITUDE VALLEY,QLD,4006,-27.452,153.03
Health Services,General Health Services,BreastScreen - QLD - Brisbane North,BreastScreen Queensland Brisbane Northside Service,http://www.breastscreen.qld.gov.au,(07) 3350 6022,520 Example Street,CHERMSIDE,QLD,4032,-27.384,153.023
Health Services,General Health Services,BreastScreen - QLD - Brisbane Southside Service,BreastScreen Qld Services are part of the BreastSc,http://www.breastscreen.qld.gov.au,(07) 3182 6777,521 Example Street,NATHAN,QLD,4111,-27.558,153.049
Health Services,General Health Services,Cancer Council 13 11 20 - Statewide,The Cancer Helpline is the specialised telephone i,http://www.cancerqld.org.au,13 11 20,522 Example Street,FORTITUDE VALLEY,QLD,4006,-27.452,153.029
Health Services,General Health Services,Casaurina Lodge,Casuarina Lodge is made up of two units Jasmine an,http://www.health.qld.gov.au/redland-wynnum/services/casuarina.asp,(07) 3893 8437,523 Example Street,WYNNUM WEST,QLD,4178,-27.451,153.153
Health Services,General Health Services,Centacare - Northgate Community Services,NECC supports people living in the community of No,http://www.centacarebrisbane.net.au,1300 236 822,524 Example Street,NORTHGATE,QLD,4013,-27.397,153.073
Health Services,General Health Services,Central Referral Hub,"GP Liaison, Central Referral Hub, Community Referr",http://www.health.qld.gov.au/metrosouth/specialty/central-referral-hub.asp,1300 364 155,525 Example Street,,,,-27.575,153.087
Health Services,General Health Services,Central Referral Hub - Primary Care Partnership Unit,"GP Liaison, Central Referral Hub",http://www.health.qld.gov.au/metrosouth/specialty/central-referral-hub.asp,1300 364 155,526 Example Street,EIGHT MILE PLAINS,QLD,4113,-27.575,153.087
Health Services,General Health Services,Children By Choice Association Incorporated,Children by Choice provide a Queensland-wide telep,http://www.childrenbychoice.org.au,(07) 3357 5377,527 Example Street,WINDSOR,QLD,4030,-27.434,153.031
Health Services,General Health Services,Commonwealth Respite and Carelink Centre - South Brisbane,The Commonwealth Carer Respite Centre is carer foc,http://www.bluecare.org.au,1800 059 059,528 Example Street,SALISBURY,QLD,4655,-27.544,153.037
Health Services,General Health Services,Community Child Health Service - Brisbane North,The Community Child Health Service aims to assist ,,(07) 3250 8555,529 Example Street,FORTITUDE VALLEY,QLD,4006,-27.458,153.029
Health Services,General Health Services,Corinda Community Health Centre - Brisbane South Respiratory Service - Breathe Easier Program,"Program offers support, exercise assessment and ed",http://www.health.qld.gov.au,(07) 3710 2222,530 Example Street,EIGHT MILE PLAINS,QLD,4113,-27.577,153.096
Health Services,General Health Services,Cystic Fibrosis Queensland,Cystic Fibrosis Queensland (CFQ) provides a range ,http://www.cysticfibrosis.org.au/qld/,(07) 3359 8000,531 Example Street,TOOWONG,QLD,4066,-27.481,152.993
Health Services,General Health Services,Deaf Australia - Stafford,Deaf Australia is the national peak advocacy and i,http://deafaustralia.org.au/,(07) 3357 8277,532 Example Street,STAFFORD,QLD,4053,-27.41,153.02
Health Services,General Health Services,Dental Clinic - Inala,Queensland Health offer Public Sector Oral Health ,,(07) 3275 5400,533 Example Street,INALA,QLD,4077,-27.6,152.971
Health Services,General Health Services,Dental Clinic - QEII Hospital,Queensland Health offer Public Sector Oral Health ,,(07) 3275 6368,534 Example Street,COOPERS PLAINS,QLD,4108,-27.559,153.048
Health Services,General Health Services,Dental Clinic - Wolston Park,Queensland Health offer Public Sector Oral Health ,,(07) 3271 8514,535 Example Street,WACOL,QLD,4076,-27.591,152.917
Health Services,General Health Services,Dental Hospital - Brisbane,The Dental Hospital provides a free dental service,,(07) 3231 3777,536 Example Street,BRISBANE,QLD,4000,-27.467,153.023
Health Services,General Health Services,Diabetes Counselling - National Phone service,Diabetes Counselling Online is a national web base,,(08) 8365 4424,537 Example Street,,,,-27.469,153.025
Health Services,General Health Services,Diabetes Queensland,Diabetes Queensland is the peak body for people wi,http://www.diabetesqld.org.au/,(07) 3506 0999,538 Example Street,MILTON,QLD,4064,-27.466,153.005
Health Services,General Health Services,Diabetic Care Centre Huxhams Pharmacy - Brisbane,The Diabetic Care Centre offers Diabetic advice an,,(07) 3352 6410,539 Example Street,GRANGE,QLD,4051,-27.425,153.014
Health Services,General Health Services,Dial a Home Doctor,Dial a Home Doctor is FREE for all who hold a medi,http://www.myhomedoctor.com.au,13 99 99,540 Example Street,FOREST LAKE,QLD,4078,-27.627,152.967
Health Services,General Health Services,Drug Arm - Annerley,"DRUG ARM is a non-government, non-profit organisat",http://www.hoa.drugarm.com.au/,(07) 3620 8800,541 Example Street,ANNERLEY,QLD,4103,-27.509,153.032
Health Services,General Health Services,Eating Disorders Program,The New Farm Clinic Eating Disorders Program provi,,(07) 3254 9100,542 Example Street,NEW FARM,QLD,4005,-27.473,153.045
Health Services,General Health Services,Epilepsy Queensland Inc,Epilepsy Qld provides a wide range of information ,http://www.epilepsyqueensland.com.au,(07) 3435 5000,543 Example Street,WOOLLOONGABBA,QLD,4102,-27.485,153.037
Health Services,General Health Services,Flexi Care Inc,Flexi Care Inc auspices 4 services which provide a,http://www.flexicareinc.org.au,(07) 3422 8400,544 Example Street,MANSFIELD,QLD,4122,-27.531,153.103
Health Services,General Health Services,Gardens Motel - Auchenflower,The Auchenflower Gardens Motel provides units for ,,(07) 3870 8411,545 Example Street,AUCHENFLOWER,QLD,4066,-27.476,152.992
Health Services,General Health Services,Greenslopes Hospital Low Vision Care Centre,The Low Vision Care Centre is aimed at helping peo,http://www.greenslopesprivate.com.au/,(07) 3394 7111,546 Example Street,GREENSLOPES,QLD,4120,-27.513,153.046
Health Services,General Health Services,Health Management - Eagle Farm,In conjunction with the Queensland Government fund,http://www.healthmg.com.au/,(07) 3268 3501,547 Example Street,EAGLE FARM,QLD,4009,-27.432,153.086
Health Services,General Health Services,Health Project and Research Team - Yeerongpilly,"Service Method: Direct Services, Research, Target ",,(07) 3817 2324,548 Example Street,YEERONGPILLY,QLD,4105,-27.526,153.014
Health Services,General Health Services,Health Services Info Line,The Health Services Info Line provides a wide rang,,(07) 3837 5986,549 Example Street,BRISBANE,QLD,4000,-27.466,153.016
Health Services,General Health Services,Heart Foundation Walking,HFW is a community based walking program which aim,http://walking.heartfoundation.org.au/,(07) 3872 2500,550 Example Street,FORTITUDE VALLEY,QLD,4006,-27.452,153.03
Health Services,General Health Services,Heart Foundation Walking - Fortitude Valley,Heart Foundation Walking is Australia's largest ne,https://www.heartfoundation.org.au/active-living/get-active/walking,1300 362 787,551 Example Street,FORTITUDE VALLEY,QLD,4006,-27.452,153.03
Health Services,General Health Services,Help Program for Kidz - Medilase Laser Tattoo Removal Courses and Training,Homeless and Jobless Youth who cannot find work du,http://www.medilase.com.au,0426 444 556,552 Example Street,MOUNT GRAVATT,QLD,4122,-27.538,153.079
Health Services,General Health Services,Hepatitis Queensland,The Hepatitis Councils services include support gr,http://www.hepqld.asn.au,1800 437 222,553 Example Street,SOUTH BRISBANE,QLD,4101,-27.474,153.015
Health Services,General Health Services,iChi Physio,iChi Physio provide a physiotherapy service and ge,,(07) 3847 2081,554 Example Street,,,,-27.5,153.05
Health Services,General Health Services,Inala Community Health Centre,"Alcohol, Tobacco and Other DrugsBreastScreenChild ",http://www.health.qld.gov.au/services/metrosouth/inala-chc.asp,(07) 3275 5333,555 Example Street,INALA,QLD,4077,-27.6,152.971
Health Services,General Health Services,Indigenous Community HIV/AIDS and Sexual Health Information Service - Roma,Did you know that many new HIV infections occur be,http://www.quac.org.au/,1800 177 434,556 Example Street,TENERIFFE,QLD,4005,-27.452,153.046
Health Services,General Health Services,Integrate Place,General Health Services,http://www.integrateplace.com.au,(07) 3396 3128,557 Example Street,WYNNUM,QLD,4178,-27.443,153.177
Health Services,General Health Services,Integrated Mental Health - West Moreton District,"Service Method: Counselling, Direct Services, Adul",,(07) 3817 2484,558 Example Street,IPSWICH,QLD,4305,-27.494,153.034
Health Services,General Health Services,Ipswich Clinic,"Service Method: Direct Services, Methadone Program",,(07) 3817 2501,559 Example Street,IPSWICH,QLD,4305,-27.494,153.034
